CITY,STATE,CAPITAL,IBGE_RES_POP,IBGE_DU,IBGE_POP,IBGE_15-59,IBGE_60+,IBGE_PLANTED_AREA,IBGE_CROP_PRODUCTION_$,IDHM Ranking 2010,IDHM,IDHM_Renda,IDHM_Longevidade,IDHM_Educacao,LONG,LAT,ALT,AREA,REGIAO_TUR,CATEGORIA_TUR,ESTIMATED_POP,RURAL_URBAN,GVA_AGROPEC,GVA_INDUSTRY,GVA_SERVICES,GVA_PUBLIC,GVA_TOTAL,TAXES,GDP,POP_GDP,GDP_CAPITA,GVA_MAIN,MUN_EXPENDIT,COMP_TOT,Cars,Motorcycles,POST_OFFICES,IBGE_1-14
Abadia De Goiás,GO,0,6876,2137,5300,3542,416,319,1843,1689,0.708,0.687,0.83,0.622,-49.4405,-16.7588,893.6015,147.256,0,0,8583,Urbano,6201,27991,74750,36915,145858,20554,166412,8053,20665.0,Demais serviços,28227690,284,2158,1246,1,1342
Abadia Dos Dourados,MG,0,6704,2328,4154,2709,589,4479,18017,2207,0.689,0.693,0.839,0.563,-47.3968,-18.4876,753.1249,881.064,Caminhos Do Cerrado,D,6972,Rural Adjacente,50525,25918,62689,28084,167215,12873,180089,7037,25592.0,Demais serviços,17909274,476,2227,1142,1,856
Abadiânia,GO,0,15757,4655,10656,6896,990,10307,33085,2202,0.689,0.671,0.841,0.579,-48.7188,-16.1827,1017.5506,1045.127,Região Turística Do Ouro E Cristais,C,19614,Rural Adjacente,42839,16728,138199,63396,261162,26823,287984,18427,15628.0,Demais serviços,37513019,288,2838,1426,3,2770
Abaetetuba,PA,0,141100,31061,82956,53516,5996,25200,700872,3530,0.628,0.579,0.798,0.537,-48.8844,-1.7235,10.1203,1610.651,Araguaia-Tocantins,D,156292,Urbano,140464,58610,468129,486872,1154075,95180,1249255,151934,8222.0,"Administração, defesa, educação e saúde públicas e seguridade social",0,931,5277,25661,2,23444
Abaeté,MG,0,22690,7694,18464,11979,2681,1862,7502,1994,0.698,0.72,0.848,0.556,-45.4462,-19.1558,644.7399,1817.067,Lago De Três Marias,D,23223,Urbano,113825,31003,172333,86081,403241,26994,430235,23574,18250.0,Demais serviços,0,621,6928,2953,4,3804
Abaiara,CE,0,10496,2791,4538,2631,582,2598,5234,3522,0.628,0.54,0.748,0.612,-39.0475,-7.357,403.1085,180.08,0,0,11663,Rural Adjacente,4435,5876,22808,35990,69109,4043,73151,11483,6370.0,"Administração, defesa, educação e saúde públicas e seguridade social",0,86,553,1674,1,1325
Abaré,BA,0,17064,4332,8994,5386,803,2058,22761,4756,0.575,0.533,0.776,0.46,-39.1166,-8.7234,316.382,1604.923,0,0,19814,Rural Remoto,9176,6703,36922,65748,118549,6205,124754,19939,6257.0,"Administração, defesa, educação e saúde públicas e seguridade social",0,87,613,1532,1,2805
Abatiá,PR,0,7764,2499,5685,3650,811,1197,9943,2258,0.687,0.676,0.804,0.596,-50.3125,-23.3005,579.2955,228.717,0,0,7507,Rural Adjacente,73341,8840,42999,34103,159283,5765,165048,7795,21174.0,"Agricultura, inclusive apoio à agricultura e a pós colheita",0,285,2168,912,1,1224
Abaíra,BA,0,8316,2572,3725,2319,673,895,3999,4086,0.603,0.577,0.746,0.51,-41.6616,-13.2535,674.2237,538.677,Chapada Diamantina,D,8767,Rural Remoto,12413,3437,17991,28464,62305,2020,64325,9212,6983.0,"Administração, defesa, educação e saúde públicas e seguridade social",0,191,896,696,1,733
Abdon Batista,SC,0,2653,848,724,479,89,5502,26195,2092,0.694,0.66,0.812,0.625,-51.0253,-27.609,720.9758,237.164,Vale Do Contestado,D,2577,Rural Adjacente,24997,3579,16011,17843,62429,2313,64742,2617,24739.0,"Administração, defesa, educação e saúde públicas e seguridade social",19506956,69,976,345,1,156
Abel Figueiredo,PA,0,6780,1880,5998,3657,468,1184,4168,3657,0.622,0.625,0.8,0.481,-48.3968,-4.9514,192.7567,614.131,Amazônia Atlântica,E,7382,Intermediário Adjacente,21382,5314,20515,27736,74948,4710,79658,7179,11096.0,"Administração, defesa, educação e saúde públicas e seguridade social",0,72,279,807,1,1873
Abelardo Luz,SC,0,17100,4739,9544,6068,942,57186,254540,2032,0.696,0.684,0.852,0.578,-52.3365,-26.563,724.9871,953.992,Grande Oeste,D,17847,Rural Adjacente,212531,78176,197092,78972,566772,37508,604280,17782,33983.0,"Agricultura, inclusive apoio à agricultura e a pós colheita",0,464,5823,2001,1,2534
Abre Campo,MG,0,13311,3930,7101,4512,993,4543,24155,3046,0.654,0.646,0.823,0.525,-42.481,-20.3014,589.8301,470.551,Montanhas E Fé,D,13465,Rural Adjacente,43828,10449,72852,50664,177793,10111,187904,13726,13690.0,Demais serviços,0,369,2838,1851,2,1596
Abreu E Lima,PE,0,94429,28182,81482,54749,8004,387,2595,2477,0.679,0.625,0.791,0.632,-34.8991,-7.9044,27.0606,126.193,Costa Náutica Coroa Do Avião,D,99622,Urbano,7799,384262,526039,336142,1254241,170265,1424506,98990,14390.0,Demais serviços,119645700,841,14579,10122,1,18729
Abreulândia,TO,0,2391,760,1476,872,122,13102,31281,2786,0.665,0.7,0.835,0.502,-49.1624,-9.6218,238.8619,1895.212,0,0,2564,Rural Adjacente,20313,2108,6802,16521,45744,1634,47378,2555,18543.0,"Administração, defesa, educação e saúde públicas e seguridade social",9712530,27,190,318,1,482
Acaiaca,MG,0,3920,1264,2550,1581,335,208,509,3493,0.63,0.61,0.823,0.499,-43.1482,-20.3604,492.791,101.886,Serras De Minas,E,3994,Rural Adjacente,3839,1892,11979,17696,35406,1018,36424,4061,8969.0,"Administração, defesa, educação e saúde públicas e seguridade social",12182050,60,899,598,1,634
Acajutiba,BA,0,14653,4116,12727,7412,1564,4570,11442,4613,0.582,0.56,0.723,0.487,-38.0183,-11.6626,183.9284,181.475,0,0,15129,Rural Adjacente,23177,7023,33546,48143,111889,3270,115158,15764,7305.0,"Administração, defesa, educação e saúde públicas e seguridade social",27275310,96,834,1444,1,3751
Acarape,CE,0,15338,4186,8189,5149,796,1386,1274,4009,0.606,0.559,0.709,0.562,-38.7056,-4.2231,94.5123,155.169,0,0,15399,Intermediário Adjacente,4677,23265,36148,54651,118741,9650,128391,16418,7820.0,"Administração, defesa, educação e saúde públicas e seguridade social",33078580,132,1089,1246,2,2244
Acaraú,CE,0,57551,14680,24117,15123,2379,18505,38871,4125,0.601,0.554,0.758,0.517,-40.1182,-2.8853,17.2914,845.468,Litoral Extremo Oeste,C,62557,Rural Adjacente,74353,94124,187458,188055,543990,36737,580727,61715,9410.0,"Administração, defesa, educação e saúde públicas e seguridade social",101483436,638,3371,10448,1,6615
Acari,RN,0,11035,3298,8260,5217,1314,375,1977,2462,0.679,0.633,0.779,0.634,-36.6437,-6.4421,258.8351,608.466,Polo Seridó,D,11152,Intermediário Adjacente,12580,9275,30356,50992,103203,5380,108583,11338,9577.0,"Administração, defesa, educação e saúde públicas e seguridade social",22943205,167,1259,1802,1,1729
Acará,PA,0,53569,11833,12590,7281,989,41637,342851,5513,0.506,0.517,0.757,0.332,-48.2005,-1.9634,7.395,4343.55,Araguaia-Tocantins,D,55513,Rural Adjacente,441282,43934,97080,188941,771238,17178,788416,54080,14579.0,"Agricultura, inclusive apoio à agricultura e a pós colheita",106368816,162,652,3342,1,4320
Acauã,PI,0,6749,1877,901,558,74,5520,503,5408,0.528,0.517,0.692,0.411,-41.0836,-8.2208,372.3118,1279.586,Polo Histórico Cultural,E,7065,Rural Adjacente,6047,1556,7052,25754,40410,2193,42603,6951,6129.0,"Administração, defesa, educação e saúde públicas e seguridade social",14935714,77,272,1014,1,269
Aceguá,RS,0,4394,1398,1059,684,117,31149,119866,2259,0.687,0.703,0.852,0.541,-54.1647,-31.864,237.9222,1551.339,Pampa Gaúcho,D,4858,Urbano,130383,10633,66901,30193,238110,12222,250332,4731,52913.0,"Agricultura, inclusive apoio à agricultura e a pós colheita",22028720,168,2046,591,2,258
Acopiara,CE,0,51160,15041,25159,15121,3801,17482,4244,4279,0.595,0.563,0.724,0.517,-39.4557,-6.0928,312.9576,2265.349,0,0,53931,Rural Adjacente,35058,17009,137662,155450,345178,26523,371701,53358,6966.0,"Administração, defesa, educação e saúde públicas e seguridade social",85042995,365,3158,11056,10,6237
Acorizal,MT,0,5516,1742,2926,1793,392,278,2299,3523,0.628,0.594,0.816,0.51,-56.3716,-15.1979,201.781,1014.029,0,0,5424,Rural Adjacente,9896,13184,13178,28666,64923,5914,70837,5301,13363.0,"Administração, defesa, educação e saúde públicas e seguridade social",0,57,492,529,3,741
Acrelândia,AC,0,12538,3473,5902,3484,411,5807,31152,4079,0.604,0.584,0.808,0.466,-67.0523,-10.0738,205.894,1807.948,0,0,15020,Rural Adjacente,91144,14019,32080,85106,222349,5262,227611,14120,16120.0,"Administração, defesa, educação e saúde públicas e seguridade social",22507579,107,1223,3343,1,2007
Acreúna,GO,0,20279,6485,16969,11256,1535,112457,452254,2282,0.686,0.71,0.822,0.553,-50.375,-17.3982,542.3927,1565.997,0,0,22182,Urbano,232884,47274,207423,86030,573612,40799,614411,21905,28049.0,"Agricultura, inclusive apoio à agricultura e a pós colheita",46887656,318,4892,3461,1,4178
Adamantina,SP,0,33797,11335,31695,20651,5537,14699,69644,69,0.79,0.772,0.852,0.75,-51.0734,-21.6883,451.1188,411.987,Águas Do Oeste,C,35023,Urbano,41900,298402,587637,151089,1079028,73414,1152441,35094,32839.0,Demais serviços,115703288,1726,14851,6481,1,5507
Adelândia,GO,0,2477,846,2190,1435,287,1091,4158,1858,0.702,0.664,0.836,0.622,-50.1631,-16.415,641.1067,115.353,0,0,2517,Rural Adjacente,7943,2749,8462,11115,30269,1695,31964,2561,12481.0,"Administração, defesa, educação e saúde públicas e seguridade social",11102682,57,584,393,1,468
Adolfo,SP,0,3557,1200,3200,2079,502,9755,67479,1044,0.73,0.71,0.844,0.648,-49.6497,-21.2327,425.3921,211.055,Coração Do Tietê,D,3571,Rural Adjacente,29090,6145,27722,21019,83976,2490,86466,3616,23912.0,"Agricultura, inclusive apoio à agricultura e a pós colheita",0,81,1394,401,1,619
Adrianópolis,PR,0,6376,1976,2050,1258,250,4257,41893,2746,0.667,0.644,0.817,0.563,-48.9918,-24.6617,180.7059,1349.311,0,0,5983,Rural Adjacente,29900,107937,40707,30010,208554,30527,239080,6293,37991.0,Indústrias de transformação,27071690,145,1437,925,3,542
Adustina,BA,0,15702,4544,5545,3498,697,26000,26863,5261,0.546,0.526,0.718,0.432,-38.1155,-10.5296,280.7102,632.139,Caminhos Do Sertão,E,16784,Rural Adjacente,14280,4420,29092,49456,97248,4230,101478,17254,5881.0,"Administração, defesa, educação e saúde públicas e seguridade social",29542520,92,262,1185,1,1350
Afogados Da Ingazeira,PE,0,35088,10879,27335,16849,3389,3625,1404,2974,0.657,0.623,0.807,0.565,-37.6377,-7.7483,515.3462,377.696,Território Da Poesia E Da Cantoria,C,37111,Urbano,7598,33313,180016,127393,348319,37330,385649,36866,10461.0,"Administração, defesa, educação e saúde públicas e seguridade social",68786461,527,5737,10461,1,7097
Afonso Bezerra,RN,0,10844,2948,5736,3492,791,711,6358,4539,0.585,0.56,0.713,0.502,-36.5091,-5.4987,64.5032,576.18,Polo Costa Branca,D,11041,Rural Adjacente,6021,3493,18878,53155,81547,3238,84785,11207,7565.0,"Administração, defesa, educação e saúde públicas e seguridade social",29729803,72,655,838,1,1453
Afonso Cláudio,ES,0,31091,9859,15757,10052,2261,12267,114366,2744,0.667,0.661,0.825,0.544,-41.1255,-20.077,360.7991,941.188,Montanhas Capixabas,D,30720,Rural Adjacente,103014,52082,167838,124251,447185,25292,472477,32407,14579.0,Demais serviços,69220539,555,8131,7984,6,3444
Afonso Cunha,MA,0,5905,1305,3230,1880,247,6388,17098,5406,0.529,0.471,0.725,0.434,-43.3209,-4.135,67.1975,371.338,0,0,6469,Rural Adjacente,2461,1600,8463,21500,34025,1434,35459,6421,5522.0,"Administração, defesa, educação e saúde públicas e seguridade social",0,14,61,519,1,1103
Afrânio,PE,0,17586,4744,5841,3616,534,7000,173,4445,0.588,0.542,0.761,0.493,-41.0058,-8.5111,515.8429,1490.594,0,0,19456,Rural Adjacente,8158,6727,52943,72458,140286,10053,150340,19225,7820.0,"Administração, defesa, educação e saúde públicas e seguridade social",44498864,141,809,3677,4,1691
Afuá,PA,0,35042,6748,9408,5399,575,140,958,5544,0.489,0.485,0.774,0.311,-50.3914,-0.1592,3.1364,8338.438,Marajó,D,38863,Rural Remoto,107967,17984,41202,139566,306719,9272,315991,37778,8364.0,"Administração, defesa, educação e saúde públicas e seguridade social",0,36,2,4,1,3434
Agrestina,PE,0,22679,6882,16935,10195,2204,361,667,4350,0.592,0.581,0.76,0.47,-35.9468,-8.456,437.1549,200.581,Encantos Do Agreste,D,24702,Intermediário Adjacente,20548,19201,75135,89128,204012,16678,220690,24454,9025.0,"Administração, defesa, educação e saúde públicas e seguridade social",48941210,225,2825,2929,3,4536
Agricolândia,PI,0,5098,1536,3594,2100,606,2442,6319,4185,0.599,0.55,0.742,0.526,-42.6592,-5.7955,260.4377,112.392,0,0,5148,Rural Adjacente,1981,1454,6406,18108,27949,1571,29519,5069,5824.0,"Administração, defesa, educação e saúde públicas e seguridade social",12532965,39,282,1185,1,888
Agrolândia,SC,0,9323,2952,5951,3961,650,3909,26723,1167,0.725,0.727,0.827,0.633,-49.8257,-27.4005,383.2162,206.914,Caminhos Do Alto Vale,D,10711,Rural Adjacente,36177,55228,75110,43982,210497,15304,225802,10427,21655.0,Demais serviços,0,490,4218,2146,1,1340
Agronômica,SC,0,4904,1511,1858,1266,186,5945,56156,754,0.741,0.774,0.884,0.595,-49.7184,-27.2697,342.1897,129.774,Caminhos Do Alto Vale,D,5385,Urbano,47908,22249,35730,24435,130322,8068,138390,5371,25766.0,"Agricultura, inclusive apoio à agricultura e a pós colheita",16270811,223,2135,903,1,406
Aguanil,MG,0,4054,1353,2296,1484,337,3679,21206,2845,0.663,0.672,0.845,0.513,-45.3895,-20.9374,840.8977,232.091,0,0,4448,Rural Adjacente,22571,2520,18121,19636,62848,1930,64778,4406,14702.0,"Administração, defesa, educação e saúde públicas e seguridade social",13891248,91,1065,296,2,475
Aguaí,SP,0,32148,9899,28182,18608,3426,31346,223900,1460,0.715,0.703,0.858,0.606,-46.9797,-22.0597,662.483,474.554,0,0,35954,Urbano,115600,146492,307156,117822,687071,77217,764288,35189,21720.0,Demais serviços,0,799,11167,5754,1,6148
Agudo,RS,0,16722,5431,6792,4458,1028,19914,199426,2103,0.694,0.752,0.847,0.524,-53.2587,-29.6457,65.7938,534.624,Central,D,16524,Rural Adjacente,100337,72158,140968,73970,387433,36215,423647,17102,24772.0,Demais serviços,42334740,485,5888,2075,1,1306
Agudos,SP,0,34524,10201,32261,21424,3610,15695,100430,662,0.745,0.705,0.845,0.694,-48.9902,-22.474,601.3844,966.708,Coração Paulista,D,37023,Urbano,59175,1393905,628745,160194,2242020,320966,2562986,36704,69829.0,Indústrias de transformação,142168689,840,12644,4808,2,7227
Agudos Do Sul,PR,0,8270,2579,1826,1186,168,7149,49747,2900,0.66,0.671,0.79,0.543,-49.3387,-25.9906,869.3346,192.261,Rotas Do Pinhão,D,9269,Rural Adjacente,59237,8979,53726,36392,158334,9633,167967,9073,18513.0,"Agricultura, inclusive apoio à agricultura e a pós colheita",17241225,148,3042,1182,2,472
Aguiar,PB,0,5530,1660,2699,1611,433,448,200,4229,0.597,0.632,0.753,0.447,-38.1776,-7.0948,272.1856,344.708,0,0,5571,Rural Adjacente,4931,2181,10268,25408,42788,1560,44348,5567,7966.0,"Administração, defesa, educação e saúde públicas e seguridade social",17161264,28,272,721,1,655
Aguiarnópolis,TO,0,5162,1323,4117,2486,260,394,14544,2981,0.657,0.618,0.804,0.571,-47.4705,-6.5472,173.1937,235.394,0,0,6572,Urbano,38385,7300,38614,36937,121237,13384,134621,6307,21345.0,"Administração, defesa, educação e saúde públicas e seguridade social",16061415,42,472,1156,1,1371
Aimorés,MG,0,24959,8242,19057,11874,3008,3912,32955,2340,0.684,0.685,0.81,0.576,-41.0733,-19.492,64.0,1348.913,Trilhas Do Rio Doce,D,25193,Intermediário Adjacente,44773,79812,166682,97149,388416,21787,410203,25703,15959.0,Demais serviços,45443312,490,3769,4838,9,4175
Aiquara,BA,0,4602,1376,2673,1625,351,2910,5677,4573,0.583,0.573,0.733,0.471,-39.8858,-14.1273,155.1018,167.877,0,0,4478,Rural Adjacente,16939,2591,8921,20020,48471,1345,49816,4745,10499.0,"Administração, defesa, educação e saúde públicas e seguridade social",0,34,172,260,1,697
Aiuaba,CE,0,16203,4451,3939,2382,591,11125,5315,4871,0.569,0.518,0.749,0.474,-40.1232,-6.5633,472.2246,2434.423,0,0,17303,Rural Adjacente,11972,2477,29124,53934,97506,4167,101674,17098,5947.0,"Administração, defesa, educação e saúde públicas e seguridade social",31669431,94,423,2253,2,966
Aiuruoca,MG,0,6162,2028,3042,1966,494,1260,4699,2735,0.668,0.677,0.871,0.505,-44.6028,-21.9759,979.432,649.68,Terras Altas Da Mantiqueira,D,6032,Rural Adjacente,31727,4855,32791,24702,94075,4553,98629,6224,15846.0,Demais serviços,13778976,112,1585,914,1,582
Ajuricaba,RS,0,7255,2467,4098,2662,656,28841,75814,503,0.753,0.763,0.85,0.658,-53.7728,-28.2377,329.6848,322.671,Rota Do Yucumã,D,7063,Rural Adjacente,92359,17703,101151,33158,244371,19168,263539,7372,35749.0,"Agricultura, inclusive apoio à agricultura e a pós colheita",0,295,3072,872,1,780
Alagoa,MG,0,2709,875,1099,716,163,15,28,3145,0.649,0.634,0.832,0.518,-44.6381,-22.1711,1115.5199,161.356,Terras Altas Da Mantiqueira,E,2683,Rural Adjacente,5039,1801,8576,14932,30348,1088,31436,2756,11406.0,"Administração, defesa, educação e saúde públicas e seguridade social",11323018,35,479,332,1,220
Alagoa Grande,PB,0,28479,8014,17520,10422,2716,4984,20712,4599,0.582,0.576,0.797,0.43,-35.6339,-7.0368,143.2507,320.563,Brejo,D,28623,Intermediário Adjacente,16118,11376,75378,123103,225975,13682,239657,28604,8378.0,"Administração, defesa, educação e saúde públicas e seguridade social",45438117,238,1788,3396,3,4382
Alagoa Nova,PB,0,19681,5435,9794,5844,1333,5795,24722,4734,0.576,0.567,0.749,0.451,-35.7595,-7.0578,514.3035,123.731,Brejo,D,20589,Rural Adjacente,80031,24667,46472,89564,240734,10124,250857,20596,12180.0,"Administração, defesa, educação e saúde públicas e seguridade social",39834146,121,1647,1917,1,2617
Alagoinha,PE,0,13759,4108,7769,4635,1104,638,611,4184,0.599,0.569,0.801,0.472,-36.7755,-8.4663,731.3153,216.452,0,0,14554,Rural Adjacente,21339,2581,33069,57171,114159,4812,118971,14431,8244.0,"Administração, defesa, educação e saúde públicas e seguridade social",31782188,61,1210,1153,1,2030
Alagoinha,PB,0,13576,3703,8998,5261,1113,1424,5058,4268,0.595,0.574,0.795,0.462,-35.5455,-6.9481,142.4201,96.98,Brejo,E,14367,Rural Adjacente,8558,3191,22820,61290,95859,3706,99564,14376,6926.0,"Administração, defesa, educação e saúde públicas e seguridade social",29417339,108,936,1703,1,2624
Alagoinha Do Piauí,PI,0,7341,2278,2668,1725,367,9483,1855,5394,0.531,0.535,0.716,0.391,-40.9346,-7.0082,279.2437,535.807,0,0,7636,Rural Adjacente,3274,1601,10680,28284,43839,1996,45834,7515,6099.0,"Administração, defesa, educação e saúde públicas e seguridade social",13740823,53,485,639,1,576
Alagoinhas,BA,0,141949,41702,123051,82616,12709,2585,16886,2385,0.683,0.681,0.79,0.592,-38.4226,-12.1342,141.1371,707.558,Caminhos Do Sertão,C,150832,Urbano,73997,614852,1399739,483018,2571605,605970,3177575,155362,20453.0,Demais serviços,290162506,2231,24457,21546,3,27726
Alambari,SP,0,4884,1526,3671,2328,422,5271,31280,1569,0.712,0.682,0.805,0.658,-47.8936,-23.5539,609.6593,159.6,0,0,5918,Urbano,29984,7031,23785,23097,83897,3387,87284,5658,15427.0,"Administração, defesa, educação e saúde públicas e seguridade social",0,137,1260,696,1,921
Albertina,MG,0,2913,899,1998,1273,301,1506,19808,2617,0.673,0.684,0.813,0.549,-46.6116,-22.1998,992.106,58.01,Malhas Do Sul De Minas,E,3003,Rural Adjacente,8057,4025,38868,15487,66438,11982,78420,3040,25796.0,Comércio e reparação de veículos automotores e motocicletas,11479747,72,947,379,1,424
Alcantil,PB,0,5239,1567,2062,1294,237,516,47,4673,0.578,0.55,0.765,0.458,-36.0606,-7.7415,518.6663,305.988,0,0,5473,Rural Adjacente,3994,1383,6694,25987,38057,900,38957,5475,7115.0,"Administração, defesa, educação e saúde públicas e seguridade social",13445071,37,297,274,1,531
Alcinópolis,MS,0,4569,1587,3008,2014,255,11526,38982,1578,0.711,0.733,0.858,0.572,-53.7081,-18.325,430.9299,4399.681,Rota Norte,E,5268,Rural Remoto,81036,4294,24192,38195,147717,9296,157013,5114,30703.0,"Pecuária, inclusive apoio à pecuária",30320410,60,847,1044,1,739
Alcobaça,BA,0,21271,6068,11788,7307,1055,3419,38318,3982,0.608,0.611,0.771,0.476,-39.1942,-17.5189,6.3989,1482.285,Costa Das Baleias,C,22449,Rural Adjacente,80343,12392,79155,78024,249914,10220,260134,23331,11150.0,"Administração, defesa, educação e saúde públicas e seguridade social",48798422,176,1342,2032,2,3426
Alcântara,MA,0,21851,6084,6383,4111,529,1671,3831,4798,0.573,0.525,0.753,0.475,-44.417,-2.4033,29.7195,1168.246,Polo  São Luís,D,22083,Rural Adjacente,14464,7861,29391,61419,113136,4359,117495,21667,5423.0,"Administração, defesa, educação e saúde públicas e seguridade social",46725620,124,327,1282,1,1743
Alcântaras,CE,0,10771,2859,3446,2156,428,2209,2058,4144,0.6,0.549,0.751,0.524,-40.5446,-3.587,655.501,138.605,Vale Do Acaraú,E,11529,Rural Adjacente,4395,2209,14985,36237,57827,1755,59582,11391,5231.0,"Administração, defesa, educação e saúde públicas e seguridade social",0,82,668,2963,2,862
Aldeias Altas,MA,0,23952,5795,13620,7864,1059,9756,78843,5492,0.513,0.5,0.72,0.374,-43.4687,-4.6308,80.4872,1942.121,0,0,26302,Intermediário Adjacente,31990,9705,38559,81625,161878,7373,169252,26115,6481.0,"Administração, defesa, educação e saúde públicas e seguridade social",57710610,91,327,2271,0,4697
Alecrim,RS,0,7045,2473,2160,1312,511,4383,22657,2628,0.672,0.683,0.852,0.522,-54.7671,-27.6611,307.8533,316.51,Rota Do Rio Uruguai,D,6077,Rural Adjacente,28756,3209,36557,28259,96780,4394,101174,6799,14881.0,"Administração, defesa, educação e saúde públicas e seguridade social",17492090,138,2332,1076,1,337
Alegre,ES,0,30768,9960,20375,13224,2941,5112,35707,1277,0.721,0.708,0.839,0.63,-41.5365,-20.7633,258.9034,772.0,Caparaó,C,30568,Intermediário Adjacente,48037,100250,185605,127799,461691,25614,487304,32175,15145.0,Demais serviços,75746241,754,6761,4542,0,4210
Alegrete,RS,0,77653,25963,69238,44427,10293,89401,479259,791,0.74,0.72,0.849,0.664,-55.7959,-29.782,94.7312,7800.163,Fronteira,C,74173,Urbano,389202,207399,797319,335179,1729099,124429,1853528,78244,23689.0,Demais serviços,176442536,1862,21837,8230,2,14518
Alegrete Do Piauí,PI,0,5153,1489,2834,1785,318,4535,846,4538,0.585,0.564,0.749,0.475,-40.8579,-7.2453,410.8887,243.732,0,0,4912,Rural Adjacente,2647,1053,9482,18740,31921,2098,34019,4835,7036.0,"Administração, defesa, educação e saúde públicas e seguridade social",0,41,175,296,1,731
Alegria,RS,0,4301,1495,1585,956,335,11054,31726,2074,0.695,0.717,0.818,0.572,-54.0574,-27.8373,358.1974,172.396,Rota Do Rio Uruguai,E,3559,Rural Adjacente,38175,4276,33784,22283,98518,8282,106799,4085,26144.0,"Agricultura, inclusive apoio à agricultura e a pós colheita",14802900,86,1224,650,2,294
Alenquer,PA,0,52626,12119,27641,15393,2723,16651,102428,4971,0.564,0.529,0.779,0.436,-54.7409,-1.9514,39.1312,23645.452,Tapajós,D,56480,Urbano,292652,29108,115448,206974,644181,15308,659490,54960,11999.0,"Agricultura, inclusive apoio à agricultura e a pós colheita",0,245,984,7671,1,9525
Alexandria,RN,0,13507,3945,9169,5534,1461,92,0,4020,0.606,0.581,0.779,0.491,-38.0193,-6.4171,309.0512,381.205,Polo Serrano,D,13602,Rural Adjacente,3193,5366,43051,62404,114016,4749,118765,13839,8582.0,"Administração, defesa, educação e saúde públicas e seguridade social",40064068,208,1805,2661,1,2174
Alexânia,GO,0,23814,7426,19118,12062,1897,10703,41947,2389,0.682,0.664,0.841,0.568,-48.5096,-16.0862,1076.7189,847.893,Região Turística Do Ouro E Cristais,C,27288,Intermediário Adjacente,49970,145341,872356,100353,1168019,232929,1400948,26457,52952.0,Comércio e reparação de veículos automotores e motocicletas,59707413,501,6673,3027,2,5159
Alfenas,MG,0,73774,23238,68964,45941,8445,29642,195083,352,0.761,0.737,0.841,0.712,-45.9489,-21.4282,877.3397,850.446,Lago De Furnas,C,79481,Urbano,171051,387645,1176081,298291,2033069,261586,2294655,79222,28965.0,Demais serviços,189730328,2456,27210,10138,5,14578
Alfredo Chaves,ES,0,13955,4584,6541,4401,855,8242,113235,1608,0.71,0.703,0.832,0.611,-40.76,-20.6303,64.7923,615.677,Costa E Da Imigração,D,14566,Rural Adjacente,91129,62384,109342,63200,326056,24058,350114,15029,23296.0,Demais serviços,0,831,3847,3216,7,1285
Alfredo Marcondes,SP,0,3891,1352,2685,1680,531,466,2186,761,0.741,0.682,0.84,0.71,-51.4129,-21.9527,414.1973,118.915,0,0,4147,Urbano,6310,14824,25089,18132,64355,10077,74432,4118,18075.0,Demais serviços,0,107,1449,429,1,474
Alfredo Vasconcelos,MG,0,6075,1781,4031,2669,414,290,4634,2551,0.675,0.629,0.834,0.587,-43.7739,-21.1394,1066.1152,130.815,Trilha Dos Inconfidentes,E,6831,Urbano,30249,9882,22468,26253,88852,4377,93228,6709,13896.0,"Administração, defesa, educação e saúde públicas e seguridade social",12692164,130,1468,895,2,948
Alfredo Wagner,SC,0,9410,2959,2862,1910,391,8092,91469,2723,0.668,0.702,0.882,0.481,-49.3438,-27.7054,489.096,735.371,Grande Florianópolis,D,9984,Rural Adjacente,135898,14491,73223,39074,262686,9079,271765,9905,27437.0,"Agricultura, inclusive apoio à agricultura e a pós colheita",0,354,3283,2426,1,561
Algodão De Jandaíra,PB,0,2366,676,1231,714,135,255,170,5241,0.548,0.532,0.749,0.413,-36.0061,-6.9047,444.7022,220.248,0,0,2488,Rural Adjacente,1417,675,4344,16145,22580,574,23154,2488,9306.0,"Administração, defesa, educação e saúde públicas e seguridade social",12540881,18,198,104,1,382
Alhandra,PB,0,18007,5021,11119,6865,933,1667,18469,4598,0.582,0.544,0.778,0.465,-34.912,-7.433,57.4841,182.663,0,0,19391,Urbano,27741,91387,484574,100635,704336,159665,864001,19412,44509.0,Comércio e reparação de veículos automotores e motocicletas,0,173,1866,2641,2,3321
Aliança,PE,0,37415,10295,22615,14170,2508,10090,43934,4077,0.604,0.565,0.799,0.488,-35.2285,-7.6047,112.1885,272.773,Engenhos E Maracatus,D,38375,Intermediário Adjacente,45103,17659,84855,160674,308291,11847,320138,38261,8367.0,"Administração, defesa, educação e saúde públicas e seguridade social",61904662,295,3150,3110,7,5937
Aliança Do Tocantins,TO,0,5671,1726,4743,2890,544,7124,19172,2835,0.663,0.61,0.801,0.596,-48.9412,-11.3037,335.7009,1579.751,0,0,5434,Intermediário Adjacente,36098,3363,18964,32038,90463,3837,94300,5565,16945.0,"Administração, defesa, educação e saúde públicas e seguridade social",14127100,78,623,897,1,1309
Almadina,BA,0,6357,1983,5067,3007,788,3357,14006,4995,0.563,0.563,0.751,0.421,-39.6359,-14.706,290.7255,245.236,0,0,5566,Intermediário Adjacente,19224,2914,10691,21627,54455,979,55434,6062,9144.0,"Administração, defesa, educação e saúde públicas e seguridade social",0,45,341,224,1,1272
Almas,TO,0,7586,2090,5933,3348,521,16574,27979,3384,0.636,0.616,0.796,0.524,-47.1742,-11.5745,420.7404,4013.243,Serras Gerais,D,7131,Intermediário Remoto,60996,4076,15287,41025,121384,4075,125459,7340,17093.0,"Administração, defesa, educação e saúde públicas e seguridade social",0,73,469,866,1,2064
Almeirim,PA,0,33614,7729,19899,12220,1161,751,12004,3264,0.642,0.659,0.809,0.497,-52.5768,-1.5273,18.7288,72954.798,Tapajós,D,34142,Intermediário Remoto,70149,182934,138252,138524,529859,59452,589310,33282,17707.0,"Administração, defesa, educação e saúde públicas e seguridade social",88490748,309,1098,1838,2,6518
Almenara,MG,0,38775,11571,31551,20068,3871,1424,6690,3262,0.642,0.636,0.803,0.518,-40.6977,-16.1806,197.3697,2294.426,Vale Do Jequitinhonha,D,41642,Urbano,15946,50502,222897,157617,446962,27582,474544,41552,11420.0,Demais serviços,60421401,768,4937,6703,2,7612
Almino Afonso,RN,0,4871,1436,3468,2200,433,189,208,3611,0.624,0.578,0.739,0.568,-37.7631,-6.1574,243.2723,128.038,0,0,4761,Rural Adjacente,1991,1185,8134,21649,32958,1051,34009,4876,6975.0,"Administração, defesa, educação e saúde públicas e seguridade social",13032035,38,363,927,1,835
Almirante Tamandaré,PR,0,103204,30414,87717,57764,6081,2382,14654,1953,0.699,0.706,0.84,0.575,-49.3003,-25.3134,956.9426,194.744,Rotas Do Pinhão,D,117168,Urbano,31875,343640,523548,385217,1284281,112008,1396289,114129,12234.0,Demais serviços,129135424,1971,36568,11082,3,23872
Almirante Tamandaré Do Sul,RS,0,2067,731,837,562,130,22933,77474,790,0.74,0.732,0.828,0.669,-52.9137,-28.1137,601.9722,265.327,0,0,1979,Rural Adjacente,76474,6058,34497,13933,130961,6873,137834,2085,66107.0,"Agricultura, inclusive apoio à agricultura e a pós colheita",13042456,74,803,273,1,145
Aloândia,GO,0,2051,801,1765,1104,329,3623,10224,2004,0.697,0.694,0.834,0.585,-49.4823,-17.7249,607.5751,102.16,0,0,2005,Rural Adjacente,11119,2127,12265,11384,36894,1852,38746,2075,18673.0,"Administração, defesa, educação e saúde públicas e seguridade social",9391512,40,473,454,1,332
Alpercata,MG,0,7172,2215,5617,3453,693,323,2006,3187,0.646,0.629,0.824,0.521,-41.9891,-18.9868,192.6181,166.972,0,0,7411,Rural Adjacente,5571,6607,28110,31098,71385,5228,76613,7497,10219.0,"Administração, defesa, educação e saúde públicas e seguridade social",16616047,94,823,726,2,1471
Alpestre,RS,0,8027,2688,2143,1358,377,9206,58546,2649,0.671,0.7,0.795,0.543,-53.0374,-27.2488,447.8873,325.979,Rota Águas E Pedras,D,6458,Rural Adjacente,49753,318002,38289,39441,445485,6044,451529,7533,59940.0,"Eletricidade e gás, água, esgoto, atividades de gestão de resíduos e descontaminação",31608704,187,2231,1137,3,408
Alpinópolis,MG,0,18488,5625,14884,9775,1741,10175,84531,1182,0.725,0.703,0.862,0.629,-46.3895,-20.8619,870.148,454.751,Nascentes Das Gerais,D,19745,Urbano,73622,24647,151497,71337,321103,26324,347427,19741,17599.0,Demais serviços,34302000,495,7244,2306,1,3368
Alta Floresta,MT,0,49164,15199,39877,26872,2996,29056,84426,1498,0.714,0.709,0.817,0.629,-56.0916,-9.8717,273.5354,8953.191,Região Turística Amazônia Mato-Grossense,C,51615,Urbano,107068,147880,831874,289223,1376045,207738,1583783,50082,31624.0,Demais serviços,0,1505,11556,24680,2,10009
Alta Floresta D'Oeste,RO,0,24392,7276,13804,9023,1269,18288,101470,3283,0.641,0.657,0.763,0.526,-61.9998,-11.9355,337.7357,7067.025,Vale Do Guaporé,D,23167,Intermediário Adjacente,166143,31270,114455,142728,454597,23186,477783,25506,18732.0,"Administração, defesa, educação e saúde públicas e seguridade social",50218466,508,2464,9268,1,3512
Altair,SP,0,3815,1186,2998,1946,351,58202,344267,2261,0.687,0.698,0.8,0.581,-49.0601,-20.5233,555.8684,313.007,0,0,4134,Rural Adjacente,138183,8362,30466,19529,196539,3562,200101,4085,48984.0,"Agricultura, inclusive apoio à agricultura e a pós colheita",18582016,124,1040,189,2,701
Altamira,PA,0,99075,25619,79622,50556,5254,18544,113132,2792,0.665,0.662,0.811,0.548,-52.2144,-3.2057,104.7483,159533.328,Xingu,B,113195,Urbano,257761,571389,1054252,364763,2248166,224607,2472773,109938,22492.0,Demais serviços,0,1768,11102,41071,3,23812
Altamira Do Maranhão,MA,0,11063,2632,3154,1872,332,2045,4230,5215,0.549,0.486,0.719,0.473,-45.4647,-4.1623,55.1921,524.373,0,0,8066,Rural Adjacente,16154,2119,11951,30369,60594,1600,62194,10210,6091.0,"Administração, defesa, educação e saúde públicas e seguridade social",21254157,22,196,1008,1,950
Altamira Do Paraná,PR,0,4306,1390,2131,1350,267,2493,7847,2738,0.667,0.667,0.78,0.571,-52.7098,-24.801,589.3238,386.945,0,0,2209,Rural Adjacente,31424,2202,17309,17228,68162,3590,71752,3143,22829.0,"Pecuária, inclusive apoio à pecuária",17743322,52,921,578,1,514
Altaneira,CE,0,6856,2093,4955,2798,808,1271,1626,4103,0.602,0.547,0.774,0.515,-39.7458,-6.9975,659.0818,73.295,0,0,7521,Rural Adjacente,2787,1723,11824,27134,43468,1744,45212,7413,6099.0,"Administração, defesa, educação e saúde públicas e seguridade social",0,31,361,1142,2,1349
Alterosa,MG,0,13717,4560,9956,6297,1434,7802,65470,2732,0.668,0.657,0.847,0.536,-46.1453,-21.2559,847.0495,362.01,Lago De Furnas,D,14414,Rural Adjacente,55240,11257,81637,54218,202351,10401,212752,14494,14679.0,Demais serviços,27510460,290,4388,2691,2,2225
Altinho,PE,0,22353,7065,12756,7632,2079,1197,1395,4200,0.598,0.559,0.792,0.482,-36.0597,-8.4896,456.2458,452.523,Encantos Do Agreste,D,22959,Intermediário Adjacente,10569,5294,39295,78627,133785,6052,139837,22886,6110.0,"Administração, defesa, educação e saúde públicas e seguridade social",36724408,199,1536,2138,2,3045
Altinópolis,SP,0,15607,4879,13548,8787,2071,43148,334377,1046,0.73,0.726,0.843,0.635,-47.3733,-21.0246,904.2418,928.956,Alta Mogiana,D,16164,Urbano,155578,22266,202475,63563,443882,18460,462342,16199,28541.0,Demais serviços,55755271,691,6215,914,1,2690
Alto Alegre,SP,0,4102,1375,3234,2037,611,12806,60259,1913,0.7,0.683,0.817,0.616,-50.1636,-21.5817,502.6642,318.574,Tietê Vivo,E,4110,Rural Adjacente,39242,6209,30843,20864,97158,4984,102142,4164,24530.0,"Agricultura, inclusive apoio à agricultura e a pós colheita",17790839,201,1321,464,3,586
Alto Alegre,RR,0,16448,2169,4766,2782,377,10421,82877,5302,0.542,0.518,0.813,0.379,-61.314,2.9938,121.742,25753.487,"Roraima, A Savana Amazônica",D,15638,Rural Adjacente,66333,6433,25236,148481,246483,2272,248754,16053,15496.0,"Administração, defesa, educação e saúde públicas e seguridade social",0,42,493,1226,1,1607
Alto Alegre,RS,0,1848,624,743,493,126,7688,24941,625,0.747,0.756,0.859,0.642,-52.9908,-28.7747,386.5016,115.335,0,0,1663,Rural Adjacente,29096,2564,18328,12079,62067,3979,66046,1815,36389.0,"Agricultura, inclusive apoio à agricultura e a pós colheita",11148026,82,711,207,1,124
Alto Alegre Do Maranhão,MA,0,24599,5857,19366,11559,1646,568,876,5148,0.554,0.516,0.744,0.444,-44.4482,-4.2072,56.9665,383.308,0,0,26839,Urbano,8155,16457,102562,70897,198070,18954,217024,26619,8153.0,"Administração, defesa, educação e saúde públicas e seguridade social",43906688,99,642,3051,1,6161
Alto Alegre Do Pindaré,MA,0,31057,7282,9823,5540,986,3347,7010,5081,0.558,0.465,0.774,0.483,-45.8421,-3.6652,17.5993,1876.032,0,0,31894,Rural Adjacente,23365,7655,42382,92307,165709,9941,175650,31303,5611.0,"Administração, defesa, educação e saúde públicas e seguridade social",20953227,46,420,2614,1,3297
Alto Alegre Dos Parecis,RO,0,12816,3706,3628,2317,272,23049,162436,4368,0.592,0.603,0.777,0.443,-61.8531,-12.1318,396.5605,3958.273,0,0,13227,Rural Adjacente,96143,10018,34152,80432,220744,9286,230030,13993,16439.0,"Administração, defesa, educação e saúde públicas e seguridade social",29785703,125,909,3293,1,1039
Alto Araguaia,MT,0,15644,5165,13571,8980,1302,54288,163841,1803,0.704,0.712,0.802,0.612,-53.2203,-17.3156,669.953,5399.326,Região Turística Domo De Araguainha,D,18703,Urbano,143972,322623,253719,117697,838012,59365,897376,17841,50299.0,Indústrias de transformação,81218357,470,2973,2785,1,3289
Alto Bela Vista,SC,0,2005,678,605,399,90,1150,4989,459,0.755,0.734,0.882,0.664,-51.911,-27.4311,493.8552,103.962,Vale Do Contestado,E,1948,Rural Adjacente,16140,5998,10326,14186,46651,2203,48854,1977,24711.0,"Administração, defesa, educação e saúde públicas e seguridade social",14484924,56,908,297,1,116
Alto Boa Vista,MT,0,5247,1162,3158,1999,232,34341,90321,3090,0.651,0.613,0.803,0.561,-51.3793,-11.6767,248.2737,2240.438,0,0,6659,Rural Remoto,31409,3659,26580,37863,99510,6951,106462,6308,16877.0,"Administração, defesa, educação e saúde públicas e seguridade social",0,73,428,1334,1,927
Alto Caparaó,MG,0,5297,1725,3915,2543,455,2949,28050,2878,0.661,0.666,0.842,0.514,-41.8731,-20.4444,958.7732,103.69,Pico Da Bandeira,D,5799,Rural Adjacente,25514,3550,29387,24634,83085,4198,87283,5748,15185.0,"Agricultura, inclusive apoio à agricultura e a pós colheita",14110136,116,1532,1124,1,917
Alto Do Rodrigues,RN,0,12305,3591,8841,5849,796,1416,16767,2626,0.672,0.647,0.8,0.585,-36.7595,-5.2938,8.3533,191.334,0,0,14326,Rural Adjacente,39702,186994,83281,83251,393228,32985,426213,14143,30136.0,"Eletricidade e gás, água, esgoto, atividades de gestão de resíduos e descontaminação",0,186,1683,2486,1,2196
Alto Feliz,RS,0,2917,1001,813,556,123,433,8156,927,0.734,0.74,0.886,0.603,-51.3158,-29.3901,317.3006,78.852,Vale Do Caí,E,3020,Rural Adjacente,23451,19853,16742,16365,76412,6712,83125,3032,27416.0,Indústrias de transformação,13164097,102,1241,529,1,134
Alto Garças,MT,0,10350,3426,9342,6062,1005,142262,404366,1876,0.701,0.707,0.835,0.583,-53.5285,-16.9467,776.912,3865.971,Região Turística Domo De Araguainha,D,11868,Intermediário Remoto,272281,23813,181859,66874,544827,41570,586397,11383,51515.0,"Agricultura, inclusive apoio à agricultura e a pós colheita",36632596,216,2095,1817,1,2275
Alto Horizonte,GO,0,4505,1453,3858,2590,286,511,1806,1348,0.719,0.709,0.841,0.624,-49.3327,-14.1992,394.7204,503.764,0,0,6218,Rural Adjacente,11393,238039,86914,38621,374967,17228,392194,5629,69674.0,Indústrias extrativas,0,118,1036,844,1,982
Alto Jequitibá,MG,0,8318,2736,4719,2949,799,5038,52815,2914,0.66,0.66,0.787,0.554,-41.9672,-20.4229,672.948,152.272,Pico Da Bandeira,D,8333,Rural Adjacente,25954,5415,34825,32413,98608,5306,103913,8525,12189.0,"Administração, defesa, educação e saúde públicas e seguridade social",14549455,169,2479,1709,1,971
Alto Longá,PI,0,13646,3965,6713,4169,952,3027,2658,4516,0.585,0.567,0.751,0.47,-42.2103,-5.251,139.7628,1737.836,0,0,14268,Rural Adjacente,5133,3808,19997,54157,83095,3623,86718,14040,6177.0,"Administração, defesa, educação e saúde públicas e seguridade social",27589240,131,446,1969,1,1592
Alto Paraguai,MT,0,10066,3094,6372,4028,719,10407,31453,3355,0.638,0.612,0.784,0.541,-56.4944,-14.5147,238.0,1844.817,0,0,11238,Rural Remoto,22879,3169,22620,55332,103999,4796,108795,10814,10061.0,"Administração, defesa, educação e saúde públicas e seguridade social",0,58,651,1164,2,1625
Alto Paraná,PR,0,13663,4311,11190,7143,1458,10319,157086,2038,0.696,0.679,0.846,0.587,-52.3217,-23.1271,522.8612,407.719,0,0,14679,Rural Adjacente,80269,36343,81286,57630,255528,14342,269870,14606,18477.0,Demais serviços,30034933,420,4197,2135,2,2589
Alto Paraíso,RO,0,17135,5083,3299,2181,220,9830,44030,3590,0.625,0.664,0.804,0.457,-63.3176,-9.7167,128.0001,2651.822,Vale Do Jamari,D,20999,Rural Adjacente,74247,22605,64270,111134,272257,14828,287085,20569,13957.0,"Administração, defesa, educação e saúde públicas e seguridade social",33731475,256,1641,4669,1,898
Alto Paraíso,PR,0,3206,1101,1761,1083,246,2770,23551,2487,0.678,0.677,0.829,0.556,-53.7329,-23.5081,392.8838,967.772,Corredores Das Águas,E,2799,Rural Adjacente,38949,3870,15889,21291,79999,3355,83354,3037,27446.0,"Pecuária, inclusive apoio à pecuária",20312589,80,897,471,1,432
Alto Paraíso De Goiás,GO,0,6885,2125,5142,3295,403,14725,60249,1516,0.713,0.723,0.819,0.611,-47.5191,-14.1362,1232.6064,2593.905,Região Turística Da Chapada Dos Veadeiros,C,7558,Rural Adjacente,48494,9572,63801,28964,150830,9313,160143,7454,21484.0,Demais serviços,0,287,1157,638,2,1444
Alto Parnaíba,MA,0,10766,2657,6963,4045,626,74559,172328,3441,0.633,0.683,0.785,0.474,-45.9273,-9.1084,275.6981,11132.176,0,0,11168,Rural Remoto,83009,10934,47222,36844,178008,6850,184858,10979,16837.0,"Agricultura, inclusive apoio à agricultura e a pós colheita",0,112,141,1620,2,2292
Alto Piquiri,PR,0,10179,3252,8252,5201,1247,60814,163430,2529,0.676,0.669,0.798,0.578,-53.4412,-24.019,412.7792,447.666,Corredores Das Águas,D,9896,Rural Adjacente,80719,14582,96020,45079,236400,16598,252998,10253,24675.0,"Agricultura, inclusive apoio à agricultura e a pós colheita",25950821,166,2825,1510,4,1804
Alto Rio Doce,MG,0,12159,3608,4991,3159,800,1903,3605,3706,0.62,0.595,0.828,0.483,-43.4189,-21.0221,813.8485,518.053,0,0,11146,Rural Adjacente,37946,12783,35849,43554,130131,3804,133935,11792,11358.0,"Administração, defesa, educação e saúde públicas e seguridade social",18872188,179,1962,2327,4,1032
Alto Rio Novo,ES,0,7317,2302,4256,2698,514,3208,28762,2811,0.664,0.634,0.815,0.567,-41.0187,-19.0575,537.9988,227.617,0,0,7798,Rural Adjacente,13514,5298,25868,37014,81694,3757,85451,7979,10710.0,"Administração, defesa, educação e saúde públicas e seguridade social",21524164,196,1285,1507,3,1044
Alto Santo,CE,0,16359,4609,8036,5091,982,7069,2900,4140,0.601,0.563,0.774,0.499,-38.2728,-5.5221,69.9997,1338.205,0,0,17096,Rural Adjacente,30809,7570,36884,51599,126862,6689,133551,16927,7890.0,"Administração, defesa, educação e saúde públicas e seguridade social",34764298,213,775,3073,1,1963
Alto Taquari,MT,0,8072,2425,7234,4850,348,105210,396361,1771,0.705,0.736,0.833,0.571,-53.282,-17.8347,874.2165,1440.399,Região Turística Domo De Araguainha,D,10557,Intermediário Remoto,454831,220894,231849,67837,975411,63109,1038520,9963,104238.0,"Agricultura, inclusive apoio à agricultura e a pós colheita",41892856,202,1647,1177,1,2036
Altos,PI,0,38822,10392,27332,16996,3146,3328,7076,3822,0.614,0.59,0.767,0.512,-42.4609,-5.0365,190.4959,957.654,Polo Teresina,D,40440,Urbano,7804,52495,124169,134565,319032,27429,346462,39795,8706.0,"Administração, defesa, educação e saúde públicas e seguridade social",61108622,398,3273,9447,1,7190
Altônia,PR,0,20516,6676,14996,9431,2262,8358,54427,1275,0.721,0.69,0.848,0.641,-53.892,-23.8709,373.689,661.56,Corredores Das Águas,D,21933,Intermediário Adjacente,66797,18141,140549,87782,313268,21293,334561,21867,15300.0,Demais serviços,0,528,6470,4476,3,3303
Alumínio,SP,0,16839,4990,14076,9421,1183,279,1063,284,0.766,0.729,0.841,0.732,-47.2591,-23.5334,782.1651,83.66,0,0,18484,Urbano,1818,860099,360526,86380,1308823,499528,1808351,18194,99393.0,"Eletricidade e gás, água, esgoto, atividades de gestão de resíduos e descontaminação",0,271,5929,1169,1,3472
Alvarenga,MG,0,4444,1405,2109,1282,343,933,3774,4351,0.592,0.589,0.798,0.441,-41.7264,-19.4145,393.105,278.173,Trilhas Do Rio Doce,E,3973,Rural Adjacente,7622,1652,9204,18109,36588,997,37585,4245,8854.0,"Administração, defesa, educação e saúde públicas e seguridade social",0,36,692,1066,1,484
Alvarães,AM,0,14088,2335,7848,4166,403,5605,47248,5417,0.527,0.499,0.778,0.377,-64.8135,-3.2166,46.116,5923.461,0,0,15860,Rural Remoto,62449,5480,20108,58157,146193,1753,147946,15729,9406.0,"Administração, defesa, educação e saúde públicas e seguridade social",25321352,37,16,571,1,3279
Alvinlândia,SP,0,3000,912,2688,1685,356,2009,38153,1247,0.722,0.721,0.791,0.659,-49.763,-22.445,666.5149,84.879,0,0,3206,Rural Adjacente,10164,3539,16462,16021,46187,982,47169,3182,14824.0,"Administração, defesa, educação e saúde públicas e seguridade social",12329568,94,894,215,1,647
Alvinópolis,MG,0,15261,4647,11344,7124,1644,774,2105,2533,0.676,0.651,0.822,0.577,-43.0661,-20.1148,572.6477,599.443,Serras De Minas,D,15239,Rural Adjacente,21632,65500,83871,55175,226178,42578,268755,15609,17218.0,Demais serviços,22401440,307,2775,2142,4,2576
Alvorada,TO,0,8374,2605,7699,4885,783,27707,74965,1679,0.708,0.677,0.843,0.623,-49.1268,-12.4788,302.2473,1212.167,0,0,8427,Intermediário Adjacente,47184,49052,89807,45666,231709,39270,270979,8526,31783.0,Demais serviços,23016524,267,1410,1652,1,2031
Alvorada,RS,0,195673,60221,194483,126085,17254,102,343,1952,0.699,0.694,0.874,0.564,-51.0777,-29.9975,13.4407,71.602,0,0,209213,Urbano,1379,450981,1108759,749843,2310961,212179,2523140,207392,12166.0,Demais serviços,221330890,2994,58183,17062,1,51144
Alvorada D'Oeste,RO,0,16853,5051,8763,5653,760,2556,19512,3242,0.643,0.654,0.763,0.534,-62.2773,-11.3441,182.4001,3029.189,0,0,14722,Rural Adjacente,81681,11285,49673,91637,234276,9284,243560,16902,14410.0,"Administração, defesa, educação e saúde públicas e seguridade social",29322835,205,1513,5291,1,2350
Alvorada De Minas,MG,0,3546,966,1441,858,145,138,355,4802,0.572,0.57,0.794,0.414,-43.3661,-18.7336,671.944,374.008,Diamantes,E,3606,Rural Adjacente,6383,1934,11660,23565,43543,3680,47223,3669,12871.0,"Administração, defesa, educação e saúde públicas e seguridade social",24425786,54,542,456,2,438
Alvorada Do Gurguéia,PI,0,5050,1289,1843,1150,164,12705,36930,4681,0.578,0.52,0.749,0.496,-43.8631,-8.444,268.7833,2131.921,Polo Das Nascentes,E,5392,Rural Remoto,13351,2011,10644,22554,48561,3720,52281,5303,9859.0,"Administração, defesa, educação e saúde públicas e seguridade social",0,26,189,580,1,529
Alvorada Do Norte,GO,0,8084,2423,6762,4202,635,1555,5984,2898,0.66,0.64,0.819,0.548,-46.5156,-14.4828,512.1333,1259.366,0,0,8614,Urbano,15458,7625,48809,33479,105371,7280,112651,8598,13102.0,Demais serviços,24655441,193,1898,1112,1,1925
Alvorada Do Sul,PR,0,10283,3143,7305,4755,1137,45193,118098,1672,0.708,0.695,0.826,0.617,-51.2292,-22.7804,365.0581,424.25,Norte Do Paraná,D,11306,Rural Adjacente,72662,11846,94511,50440,229459,14993,244452,11148,21928.0,Demais serviços,31346258,241,2846,1135,2,1413
Além Paraíba,MG,0,34349,11190,31942,20557,4672,106,537,1147,0.726,0.713,0.857,0.626,-42.6959,-21.8768,149.0276,510.25,Serras E Cachoeiras,D,35321,Urbano,8789,164690,434466,132796,740742,79639,820380,35795,22919.0,Demais serviços,67637376,2938,14176,5528,4,6713
Amajari,RR,0,9327,1022,1218,712,72,1605,8981,5551,0.484,0.437,0.815,0.319,-61.4206,3.6521,107.7174,28472.31,O Extremo Norte Do Brasil,D,12394,Rural Adjacente,32649,1411,9413,94812,138285,887,139171,11285,12332.0,"Administração, defesa, educação e saúde públicas e seguridade social",0,17,192,356,1,434
Amambai,MS,0,34730,9056,22526,14516,2450,123065,310957,2606,0.673,0.683,0.818,0.546,-55.2438,-23.1006,481.3404,4202.324,0,0,38958,Intermediário Adjacente,223198,85748,287625,201796,798367,79215,877582,38030,23076.0,Demais serviços,0,646,8410,5764,1,5560
Amaporã,PR,0,5443,1646,4324,2786,410,14061,73690,2699,0.669,0.644,0.785,0.591,-52.7868,-23.0974,407.855,384.735,Corredores Das Águas,E,6181,Rural Adjacente,34138,4667,30360,26026,95190,7569,102760,6019,17073.0,"Administração, defesa, educação e saúde públicas e seguridade social",0,111,1262,741,1,1128
Amapá,AP,0,8069,1784,6353,3707,410,503,2990,3255,0.642,0.631,0.79,0.532,-50.7932,2.0539,11.9477,8454.847,Meio Do Mundo,D,9029,Intermediário Remoto,22310,3567,41756,69044,136677,6880,143556,8690,16520.0,"Administração, defesa, educação e saúde públicas e seguridade social",0,73,231,331,2,2236
Amapá Do Maranhão,MA,0,6431,1508,4821,2645,363,1462,4356,5458,0.52,0.503,0.688,0.406,-46.0092,-1.6809,59.4369,502.402,0,0,6918,Rural Adjacente,8664,1705,15332,20463,46163,2489,48652,6844,7109.0,"Administração, defesa, educação e saúde públicas e seguridade social",0,26,124,529,1,1813
Amaraji,PE,0,21939,6189,15319,9478,1624,7999,39626,4645,0.58,0.575,0.748,0.454,-35.4508,-8.3785,291.6231,234.956,0,0,22788,Urbano,34525,6424,51350,86134,178433,8705,187138,22685,8249.0,"Administração, defesa, educação e saúde públicas e seguridade social",39476880,148,1224,1604,1,4217
Amaral Ferrador,RS,0,6353,2117,1866,1174,252,6992,45022,3620,0.624,0.664,0.802,0.457,-52.2513,-30.8751,47.8405,505.983,0,0,6974,Rural Adjacente,54004,3050,19761,30801,107616,2632,110248,6817,16172.0,"Administração, defesa, educação e saúde públicas e seguridade social",15438525,101,1698,1091,1,440
Amaralina,GO,0,3434,1091,1101,719,119,3834,13053,3940,0.609,0.569,0.813,0.489,-49.2954,-13.9255,493.8622,1343.237,0,0,3778,Rural Adjacente,24772,1553,7090,15980,49395,1649,51044,3723,13710.0,"Pecuária, inclusive apoio à pecuária",13067841,31,245,290,1,263
Amarante,PI,0,17135,4870,8738,5350,1255,3783,6746,4209,0.598,0.574,0.75,0.497,-42.8537,-6.2466,99.8146,1155.205,Polo Histórico Cultural,D,17592,Rural Adjacente,7963,5445,40821,62626,116854,7806,124661,17317,7199.0,"Administração, defesa, educação e saúde públicas e seguridade social",0,192,786,3497,1,2133
Amarante Do Maranhão,MA,0,37932,8326,14910,8477,1288,3885,2674,5143,0.555,0.541,0.716,0.441,-46.7506,-5.5577,250.763,7438.217,0,0,41136,Rural Adjacente,77972,9464,70195,118114,275744,9462,285206,40756,6998.0,"Administração, defesa, educação e saúde públicas e seguridade social",0,129,553,6527,1,5145
Amargosa,BA,0,34351,10418,24819,15437,3365,3046,12498,3596,0.625,0.616,0.807,0.492,-39.5981,-13.0345,393.8435,431.673,Caminhos Do Jiquiriçá,C,37031,Intermediário Adjacente,32277,29233,148385,106837,316732,21555,338286,38041,8893.0,Demais serviços,0,537,4689,4707,4,6017
Amaturá,AM,0,9467,1429,4868,2813,279,594,8897,5057,0.56,0.499,0.773,0.455,-68.2096,-3.3668,73.4477,4754.109,Polo Alto Solimões,E,11332,Rural Remoto,6291,2064,11805,44684,64845,1387,66232,11047,5995.0,"Administração, defesa, educação e saúde públicas e seguridade social",20330168,14,5,273,1,1776
Americana,SP,0,210638,67721,208976,143893,26623,1500,7800,19,0.811,0.8,0.876,0.76,-47.3304,-22.7409,550.3658,133.912,Bem Viver,C,237112,Urbano,10819,2446315,5466272,920895,8844301,1443615,10287915,231621,44417.0,Demais serviços,541958027,10786,113213,33482,5,38460
Americano Do Brasil,GO,0,5508,1925,5002,3267,586,1117,4756,1909,0.7,0.669,0.813,0.631,-49.9836,-16.2551,891.349,133.563,0,0,6057,Intermediário Adjacente,31180,5189,19427,22839,78636,3182,81818,5969,13707.0,"Administração, defesa, educação e saúde públicas e seguridade social",17455712,150,1230,990,1,1149
Ametista Do Sul,RS,0,7323,2401,3798,2474,399,2162,15125,2407,0.682,0.697,0.809,0.562,-53.1922,-27.3564,465.8201,93.704,Rota Águas E Pedras,D,7416,Rural Adjacente,13408,14548,26003,32633,86592,5823,92415,7573,12203.0,"Administração, defesa, educação e saúde públicas e seguridade social",17687246,246,2423,1563,2,925
Amontada,CE,0,39232,9807,15906,9453,1713,20526,25038,4018,0.606,0.503,0.761,0.582,-39.8288,-3.3649,43.4163,1178.162,Litoral Oeste,C,43131,Rural Adjacente,30593,145731,82491,141345,400160,21416,421576,42508,9918.0,"Administração, defesa, educação e saúde públicas e seguridade social",84717861,208,1681,5839,0,4740
Amorinópolis,GO,0,3609,1312,2161,1384,342,3250,10725,2433,0.681,0.672,0.813,0.579,-51.0972,-16.6179,638.7982,408.525,0,0,3185,Rural Adjacente,23761,1964,11277,15610,52612,2070,54682,3447,15864.0,"Pecuária, inclusive apoio à pecuária",0,46,609,613,1,435
Amparo,SP,0,65829,20542,52531,35339,7578,5025,32519,93,0.785,0.78,0.871,0.711,-46.7651,-22.6994,673.4298,445.323,Águas E Flores Paulista,C,71700,Urbano,111433,1040281,1409813,278935,2840462,603309,3443771,70742,48681.0,Demais serviços,203473715,2629,29581,15267,4,9614
Amparo,PB,0,2088,636,1062,641,119,660,141,4008,0.606,0.537,0.752,0.551,-37.0648,-7.5672,622.126,121.984,0,0,2227,Rural Adjacente,1276,1169,4315,14575,21335,643,21979,2229,9860.0,"Administração, defesa, educação e saúde públicas e seguridade social",0,16,131,153,1,302
Amparo De São Francisco,SE,0,2275,686,1834,1119,197,194,927,3890,0.611,0.569,0.728,0.55,-36.9275,-10.134,23.4056,35.33,Polo Do Velho Chico,E,2368,Rural Adjacente,1417,1960,5057,16199,24633,1310,25943,2382,10891.0,"Administração, defesa, educação e saúde públicas e seguridade social",0,31,132,276,1,518
Amparo Do Serra,MG,0,5053,1467,2623,1607,406,794,3020,3284,0.641,0.616,0.811,0.528,-42.8072,-20.5101,583.0962,136.186,0,0,4751,Rural Adjacente,9322,2361,12728,20583,44994,1816,46810,4947,9462.0,"Administração, defesa, educação e saúde públicas e seguridade social",12866549,46,0,0,2,610
Ampére,PR,0,17308,5505,12190,7915,1212,14806,48327,1638,0.709,0.699,0.824,0.62,-53.4733,-25.9171,527.4612,298.349,Vales Do Iguaçu,D,18989,Urbano,78581,127265,188209,74792,468847,57313,526160,18740,28077.0,Demais serviços,42327496,666,6771,3529,1,3063
Amélia Rodrigues,BA,0,25190,7169,19897,12788,2090,768,1385,2768,0.666,0.609,0.81,0.6,-38.7556,-12.4002,203.6105,173.484,0,0,25224,Intermediário Adjacente,26986,28035,116439,84612,256073,24327,280400,26424,10612.0,Demais serviços,0,250,2540,2331,3,5019
América Dourada,BA,0,15961,4343,10815,6374,1056,6982,19255,5036,0.561,0.506,0.751,0.464,-41.4372,-11.4496,688.069,822.373,0,0,16097,Rural Adjacente,29851,8038,28119,49549,115557,5202,120759,16781,7196.0,"Administração, defesa, educação e saúde públicas e seguridade social",38520382,80,968,940,5,3385
Américo Brasiliense,SP,0,34478,10290,34097,23299,2702,9563,67147,544,0.751,0.709,0.852,0.701,-48.1066,-21.73,730.2162,122.785,Centro Paulista,E,39962,Urbano,19867,278040,326975,133081,757963,79678,837641,38701,21644.0,Demais serviços,84689608,830,13728,5748,1,8096
Américo De Campos,SP,0,5706,1976,4782,3019,836,9325,55311,663,0.745,0.715,0.817,0.708,-49.727,-20.2964,449.1606,252.876,0,0,5956,Rural Adjacente,35522,3901,33320,23943,96686,2499,99184,5955,16656.0,"Agricultura, inclusive apoio à agricultura e a pós colheita",18743451,180,2224,668,1,927
Anadia,AL,0,17424,4670,10654,6518,1092,3201,12929,4887,0.568,0.546,0.756,0.444,-36.3008,-9.6841,133.2471,186.134,0,0,17564,Intermediário Adjacente,38253,3636,27652,68734,138275,2217,140492,17832,7879.0,"Administração, defesa, educação e saúde públicas e seguridade social",0,124,991,1278,1,3044
Anagé,BA,0,25516,7252,4904,3121,576,1960,3889,5330,0.54,0.549,0.771,0.371,-41.1271,-14.6113,390.0491,1336.361,0,0,18194,Rural Adjacente,14679,8533,55583,74085,152880,7496,160376,19824,8090.0,"Administração, defesa, educação e saúde públicas e seguridade social",0,238,1169,1069,2,1207
Anahy,PR,0,2874,938,2108,1294,311,10575,28565,2066,0.695,0.671,0.844,0.593,-53.1333,-24.6476,485.18,102.647,0,0,2816,Rural Adjacente,39279,2973,24871,15181,82304,5412,87716,2908,30164.0,"Agricultura, inclusive apoio à agricultura e a pós colheita",14069816,54,818,589,1,503
Anajatuba,MA,0,25291,6503,7005,4420,770,1717,2899,4624,0.581,0.523,0.762,0.492,-44.6207,-3.2576,6.906,942.568,0,0,26614,Rural Adjacente,37669,7007,41727,81361,167763,5954,173717,27125,6404.0,"Administração, defesa, educação e saúde públicas e seguridade social",49404250,80,619,2640,1,1815
Anajás,PA,0,24759,4856,9443,5162,489,267,4036,5550,0.484,0.506,0.774,0.29,-49.945,-0.9845,5.0011,6913.64,Marajó,D,28859,Rural Remoto,40211,11240,29413,100027,180891,8333,189225,28012,6755.0,"Administração, defesa, educação e saúde públicas e seguridade social",0,62,5,278,1,3792
Analândia,SP,0,4293,1385,3376,2137,540,11620,77034,475,0.754,0.745,0.861,0.668,-47.6608,-22.1288,659.5578,325.953,Serra Do Itaqueri,D,4933,Rural Adjacente,28543,39254,44727,25948,138472,4104,142577,4789,29772.0,Demais serviços,22279144,162,1535,332,1,699
Anamã,AM,0,10214,1807,4149,2359,220,404,3276,4306,0.594,0.537,0.741,0.526,-61.4059,-3.5764,21.6137,2446.121,0,0,13269,Rural Remoto,32313,3166,13847,44086,93411,1906,95318,12653,7533.0,"Administração, defesa, educação e saúde públicas e seguridade social",30129965,19,5,145,1,1570
Ananindeua,PA,0,471980,125942,461048,311512,29965,56,866,1366,0.718,0.684,0.821,0.658,-48.3721,-1.3687,26.5644,190.451,Belém,C,525566,Urbano,10569,1042975,3389222,1485518,5928283,782607,6710890,510834,13137.0,Demais serviços,163796082,4051,64865,50367,4,119571
Ananás,TO,0,9865,2644,8101,4832,808,368,1283,2656,0.671,0.621,0.804,0.605,-48.0798,-6.3628,192.7155,1576.973,Bico Do Papagaio,D,9607,Intermediário Adjacente,18295,2414,29059,53728,103496,5371,108866,9798,11111.0,"Administração, defesa, educação e saúde públicas e seguridade social",0,141,635,1829,1,2461
Anapu,PA,0,20543,5036,9803,5902,462,7609,52391,5235,0.548,0.563,0.788,0.371,-51.2016,-3.4761,56.3087,11895.296,Xingu,D,27161,Rural Remoto,94403,18252,74664,94087,281405,28197,309602,26271,11785.0,"Administração, defesa, educação e saúde públicas e seguridade social",63452420,210,494,2893,1,3439
Anapurus,MA,0,13939,3333,7158,4323,504,11469,35746,4620,0.581,0.511,0.764,0.502,-43.1058,-3.667,94.5036,608.903,0,0,15566,Rural Adjacente,17757,13201,44423,47778,123159,10418,133577,15499,8618.0,"Administração, defesa, educação e saúde públicas e seguridade social",0,78,425,1253,1,2331
Anastácio,MS,0,23835,7382,19029,11948,2086,11322,25979,2828,0.663,0.663,0.789,0.557,-55.8046,-20.4824,155.3547,2946.317,0,0,25128,Urbano,72693,64829,120916,122654,381091,31287,412378,24852,16593.0,"Administração, defesa, educação e saúde públicas e seguridade social",51507521,314,4390,5638,1,4995
Anaurilândia,MS,0,8493,2753,4303,2766,511,19710,49835,2682,0.67,0.676,0.826,0.538,-52.7182,-22.1827,312.6036,3395.437,0,0,8993,Rural Adjacente,86686,19705,40946,54401,201738,11602,213340,8885,24011.0,"Pecuária, inclusive apoio à pecuária",0,110,1908,747,2,1026
Anchieta,ES,0,23902,7347,17595,11795,1759,3398,22091,1040,0.73,0.696,0.856,0.654,-40.6477,-20.8056,5.7136,409.691,Costa E Da Imigração,B,28736,Rural Adjacente,29505,138812,254395,231028,653740,59713,713453,28091,25398.0,"Administração, defesa, educação e saúde públicas e seguridade social",220135586,699,5981,3489,7,4041
Anchieta,SC,0,6380,1981,2580,1701,337,2703,12361,1963,0.699,0.703,0.8,0.608,-53.3333,-26.5357,700.5274,231.7,Caminhos Da Fronteira,D,5721,Rural Adjacente,50854,14963,37481,27525,130824,7616,138440,5909,23429.0,"Pecuária, inclusive apoio à pecuária",17209606,281,2365,903,1,542
Andaraí,BA,0,13960,3761,7730,4532,820,2178,2458,5144,0.555,0.54,0.764,0.415,-41.3246,-12.8014,416.6532,1590.316,Chapada Diamantina,D,13153,Rural Adjacente,6281,5170,29873,50087,91411,3617,95028,13732,6920.0,"Administração, defesa, educação e saúde públicas e seguridade social",35353283,143,551,733,3,2378
Andirá,PR,0,20610,6664,19308,12497,2820,23193,85493,1165,0.725,0.69,0.838,0.66,-50.2264,-23.0518,491.0449,236.075,Norte Pioneiro,D,20139,Urbano,64695,157787,302032,89729,614243,71362,685605,20822,32927.0,Demais serviços,60953205,511,7174,3386,2,3991
Andorinha,BA,0,14414,4625,6199,4020,653,836,36,4458,0.588,0.586,0.731,0.474,-39.8323,-10.3442,414.5499,1362.386,0,0,14690,Rural Adjacente,9030,58657,47212,52118,167016,5200,172216,15551,11074.0,Indústrias extrativas,33934328,109,1141,1356,3,1526
Andradas,MG,0,37270,12232,27784,18664,3960,9297,86463,926,0.734,0.731,0.878,0.617,-46.5756,-22.0728,878.9043,469.396,Caminhos Gerais,D,40747,Urbano,114164,143065,361549,146269,765047,89842,854890,40407,21157.0,Demais serviços,63069636,1349,15060,6586,5,5160
Andradina,SP,0,55334,18106,49207,32179,7621,37004,158936,142,0.779,0.762,0.885,0.702,-51.3788,-20.9015,392.0173,964.226,Tietê Vivo,C,57112,Urbano,119854,1495549,1042418,216897,2874717,235010,3109727,57300,54271.0,Indústrias de transformação,138287448,1707,22374,14223,1,9407
Andrelândia,MG,0,12173,3972,9735,6233,1519,5058,24626,1921,0.7,0.675,0.818,0.621,-44.3177,-21.737,956.201,1005.285,0,0,12242,Intermediário Adjacente,39438,13030,79425,47901,179795,15545,195341,12507,15618.0,Demais serviços,23530223,274,3113,889,1,1983
André Da Rocha,RS,0,1216,425,427,272,81,21974,84117,1310,0.72,0.738,0.837,0.605,-51.5737,-28.632,704.8762,329.4,0,0,1324,Rural Adjacente,92114,3355,15947,9395,120810,2730,123540,1300,95031.0,"Agricultura, inclusive apoio à agricultura e a pós colheita",10211816,51,449,57,1,74
Angatuba,SP,0,22210,7052,15904,10446,1769,23445,218280,1351,0.719,0.693,0.827,0.648,-48.4068,-23.484,628.2864,1027.288,Roteiro Fogão E Viola,D,24969,Intermediário Adjacente,154078,176165,336359,93211,759813,74604,834417,24400,34197.0,Demais serviços,0,935,7211,3074,2,3689
Angelim,PE,0,10202,3002,5990,3457,871,1279,1863,4807,0.572,0.555,0.751,0.448,-36.2848,-8.8904,639.9271,118.037,0,0,11072,Rural Adjacente,43538,4451,17338,42060,107386,2983,110369,10965,10066.0,"Pecuária, inclusive apoio à pecuária",0,48,826,756,1,1662
Angelina,SC,0,5250,1627,1092,715,167,1909,23181,2264,0.687,0.699,0.797,0.581,-48.9835,-27.5823,440.5214,499.776,Grande Florianópolis,D,4860,Rural Adjacente,48243,8702,29506,23511,109962,3651,113613,4998,22732.0,"Agricultura, inclusive apoio à agricultura e a pós colheita",15125235,138,1831,1558,3,210
Angelândia,MG,0,8003,2114,4036,2347,348,3677,20810,4223,0.597,0.594,0.756,0.473,-42.2665,-17.7278,864.3383,185.211,Pedras Preciosas,E,8481,Rural Adjacente,20106,3432,19610,34036,77185,2690,79875,8502,9395.0,"Administração, defesa, educação e saúde públicas e seguridade social",18397341,71,906,1264,1,1341
Angical,BA,0,14073,3801,6516,3991,790,4864,17922,3598,0.625,0.564,0.778,0.556,-44.6958,-12.0067,471.0,1530.05,0,0,14017,Rural Adjacente,51161,5644,34025,49339,140169,3553,143722,14707,9772.0,"Administração, defesa, educação e saúde públicas e seguridade social",29981612,80,692,1051,2,1735
Angical Do Piauí,PI,0,6672,2077,5213,3110,810,1055,1915,3487,0.63,0.61,0.737,0.555,-42.7439,-6.0872,191.9541,223.06,0,0,6792,Rural Adjacente,3086,2085,16632,25096,46898,2508,49406,6688,7387.0,"Administração, defesa, educação e saúde públicas e seguridade social",15685856,76,329,1429,1,1293
Angico,TO,0,3175,844,1934,1176,207,497,1466,3159,0.648,0.576,0.773,0.612,-47.8621,-6.3878,270.8336,451.733,0,0,3417,Rural Adjacente,16115,1111,4809,20988,43022,998,44021,3401,12943.0,"Administração, defesa, educação e saúde públicas e seguridade social",8555456,40,139,385,1,551
Angicos,RN,0,11549,3277,10029,6356,1289,630,117,3613,0.624,0.606,0.756,0.53,-36.6054,-5.6604,104.8118,741.582,0,0,11724,Intermediário Adjacente,4035,7997,44980,54088,111099,8229,119328,11908,10021.0,"Administração, defesa, educação e saúde públicas e seguridade social",0,176,1254,1894,1,2384
Angra Dos Reis,RJ,0,169511,53512,150897,101876,12518,455,18453,1209,0.724,0.74,0.846,0.605,-44.3196,-23.0091,7.6356,813.21,Costa Verde,A,200407,Urbano,41516,2771018,4051525,1653972,8518031,604530,9122561,191504,47636.0,Demais serviços,785075940,3463,34896,15307,5,36503
Anguera,BA,0,10242,2534,4296,2662,646,900,195,4424,0.589,0.565,0.766,0.471,-39.2485,-12.1496,238.0813,187.84,0,0,11142,Rural Adjacente,3195,3111,19505,32363,58173,3631,61805,11402,5420.0,"Administração, defesa, educação e saúde públicas e seguridade social",0,58,528,621,1,988
Angélica,MS,0,9185,3038,6758,4364,754,46115,284619,2008,0.697,0.692,0.839,0.582,-53.7697,-22.1561,360.9227,1273.268,0,0,10620,Rural Adjacente,286060,151557,103986,58780,600383,27123,627506,10304,60899.0,"Agricultura, inclusive apoio à agricultura e a pós colheita",0,208,2805,1844,2,1640
Anhanguera,GO,0,1020,353,950,621,137,10,90,1168,0.725,0.724,0.802,0.657,-48.2174,-18.3344,546.6775,56.95,0,0,1137,Rural Adjacente,1917,1051,4088,8384,15439,497,15935,1115,14292.0,"Administração, defesa, educação e saúde públicas e seguridade social",9630590,16,313,127,1,192
Anhembi,SP,0,5653,1799,4223,2649,483,14687,134153,1289,0.721,0.681,0.863,0.637,-48.1269,-22.7863,460.917,736.557,Pólo Turístico Cuesta,D,6627,Rural Adjacente,47749,18665,29752,29410,125576,3122,128698,6397,20118.0,"Agricultura, inclusive apoio à agricultura e a pós colheita",28251700,139,1469,227,2,1091
Anhumas,SP,0,3738,1156,3038,1953,414,11367,60619,745,0.741,0.683,0.845,0.706,-51.3861,-22.2932,469.7525,320.84,0,0,4085,Urbano,24627,5622,17491,18392,66133,1874,68007,4026,16892.0,"Agricultura, inclusive apoio à agricultura e a pós colheita",16208660,98,1152,356,1,671
Anicuns,GO,0,20239,6830,16804,11465,1748,15236,66632,1493,0.714,0.695,0.834,0.627,-49.9591,-16.4607,699.9645,979.23,0,0,21717,Intermediário Adjacente,96835,88717,121335,79758,386645,22013,408657,21614,18907.0,Demais serviços,51770284,490,5540,3450,3,3591
Anita Garibaldi,SC,0,8623,2709,4531,2917,615,5157,18860,2243,0.688,0.667,0.826,0.592,-51.1312,-27.6838,886.2327,587.994,Serra Catarinense,D,7313,Rural Adjacente,39123,8716,46777,38396,133012,6104,139116,7708,18048.0,"Administração, defesa, educação e saúde públicas e seguridade social",22182781,200,3135,1026,2,999
Anitápolis,SC,0,3214,1075,1315,827,203,477,4736,2578,0.674,0.699,0.836,0.524,-49.1316,-27.9099,444.183,540.636,Grande Florianópolis,D,3236,Rural Adjacente,19562,3522,18218,16562,57865,1993,59858,3251,18412.0,"Administração, defesa, educação e saúde públicas e seguridade social",13303415,95,1119,821,1,285
Anori,AM,0,16317,2981,9976,5826,688,565,3283,5030,0.561,0.54,0.757,0.433,-61.659,-3.7454,20.3462,6036.38,0,0,20538,Rural Remoto,79417,4752,20474,70733,175375,1818,177193,19749,8972.0,"Administração, defesa, educação e saúde públicas e seguridade social",25903648,76,17,395,1,3462
Anta Gorda,RS,0,6073,1939,2313,1538,392,10517,70243,789,0.74,0.742,0.868,0.63,-52.0158,-28.9709,423.6256,242.262,Vale Do Taquari,E,6003,Rural Adjacente,62970,12689,63719,28793,168171,19189,187361,6216,30142.0,"Agricultura, inclusive apoio à agricultura e a pós colheita",17180383,334,2805,716,1,383
Antas,BA,0,17072,4646,6313,4059,900,4175,5474,4367,0.592,0.573,0.739,0.491,-38.331,-10.4127,432.8269,321.606,0,0,19093,Rural Adjacente,12995,5045,37225,53027,108292,4302,112595,19382,5809.0,"Administração, defesa, educação e saúde públicas e seguridade social",0,98,572,1284,1,1354
Antonina,PR,0,18891,5819,15510,9361,2239,1432,13199,2260,0.687,0.686,0.838,0.564,-48.7129,-25.4302,9.9764,882.317,Litoral Do Paraná,D,19011,Intermediário Adjacente,12968,221099,175388,81199,490653,34593,525246,19418,27049.0,"Eletricidade e gás, água, esgoto, atividades de gestão de resíduos e descontaminação",38345841,323,3128,1363,2,3910
Antonina Do Norte,CE,0,6984,2005,4995,2812,848,1463,781,4191,0.599,0.55,0.772,0.506,-39.9824,-6.7797,387.2471,260.104,0,0,7328,Rural Adjacente,1797,2067,18448,26423,48735,2731,51467,7253,7096.0,"Administração, defesa, educação e saúde públicas e seguridade social",0,39,478,1595,2,1335
Antônio Almeida,PI,0,3039,871,2203,1384,243,6856,22196,3705,0.62,0.579,0.781,0.527,-44.1965,-7.2194,251.7919,645.748,0,0,3158,Rural Remoto,8894,10946,8720,14325,42885,3003,45887,3109,14760.0,"Administração, defesa, educação e saúde públicas e seguridade social",11567551,44,118,493,1,576
Antônio Cardoso,BA,0,11554,2898,3218,2080,341,2832,1124,5039,0.561,0.544,0.768,0.422,-39.1187,-12.4348,167.9557,293.53,0,0,11691,Rural Adjacente,7111,4391,32774,39038,83313,7584,90898,12200,7451.0,"Administração, defesa, educação e saúde públicas e seguridade social",0,23,509,782,1,797
Antônio Carlos,SC,0,7458,2274,2341,1600,238,1458,21681,572,0.749,0.768,0.89,0.615,-48.765,-27.5134,19.0948,233.043,Grande Florianópolis,D,8411,Urbano,230529,127518,155766,41599,555412,43838,599250,8223,72875.0,"Agricultura, inclusive apoio à agricultura e a pós colheita",31527835,377,3518,2044,1,503
Antônio Carlos,MG,0,11114,3470,7825,5167,1061,668,7662,2379,0.683,0.65,0.838,0.584,-43.7556,-21.3186,1059.3339,529.915,Trilha Dos Inconfidentes,D,11432,Urbano,22020,20999,46106,42387,131512,9401,140913,11584,12164.0,"Administração, defesa, educação e saúde públicas e seguridade social",0,143,2624,1198,4,1597
Antônio Dias,MG,0,9565,2878,4662,2944,493,97,290,3220,0.645,0.624,0.849,0.507,-42.8695,-19.6515,445.4637,787.061,0,0,9363,Rural Adjacente,21792,22126,47511,42014,133444,11281,144725,9660,14982.0,"Administração, defesa, educação e saúde públicas e seguridade social",23779361,114,1532,996,2,1225
Antônio Gonçalves,BA,0,11015,3092,5770,3487,697,712,1234,4206,0.598,0.58,0.741,0.498,-40.2757,-10.5758,500.5641,345.283,0,0,11715,Rural Adjacente,5278,3502,17308,35293,61381,2158,63539,11989,5300.0,"Administração, defesa, educação e saúde públicas e seguridade social",0,101,582,791,1,1586
Antônio João,MS,0,8208,2241,6065,3649,707,56159,128517,3234,0.643,0.633,0.799,0.526,-55.9481,-22.1947,691.6796,1145.175,0,0,8891,Rural Adjacente,76641,8172,49934,49293,184040,16104,200144,8744,22889.0,"Agricultura, inclusive apoio à agricultura e a pós colheita",28193377,76,1681,687,1,1709
Antônio Martins,RN,0,6907,2095,3774,2332,507,702,200,4693,0.578,0.554,0.76,0.458,-37.8857,-6.216,325.1789,244.897,0,0,7137,Rural Adjacente,1623,3540,10481,32512,48155,1596,49751,7221,6890.0,"Administração, defesa, educação e saúde públicas e seguridade social",14572484,71,446,995,1,935
Antônio Olinto,PR,0,7351,2434,677,431,81,17735,87792,3004,0.656,0.626,0.825,0.547,-50.1979,-25.9867,814.2806,469.62,0,0,7441,Rural Adjacente,90186,10751,26722,32535,160195,5403,165598,7582,21841.0,"Agricultura, inclusive apoio à agricultura e a pós colheita",18874532,85,2217,1032,8,165
Antônio Prado,RS,0,12833,4247,6081,4040,908,4818,75421,417,0.758,0.777,0.835,0.671,-51.2836,-28.8554,640.4363,348.148,Uva E Vinho,D,13055,Rural Adjacente,63291,134647,188112,60786,446837,66837,513674,13296,38634.0,Demais serviços,37029748,810,5852,1014,1,1133
Antônio Prado De Minas,MG,0,1671,556,1003,608,215,121,643,2344,0.684,0.674,0.83,0.572,-42.1093,-21.0182,331.8212,83.802,Serra Do Brigadeiro,E,1609,Rural Adjacente,3785,984,5684,10236,20689,621,21310,1670,12761.0,"Administração, defesa, educação e saúde públicas e seguridade social",0,44,398,359,1,180
Anápolis,GO,0,334613,104418,301151,201477,30292,11805,63815,869,0.737,0.737,0.822,0.66,-48.9572,-16.3288,1023.4352,933.156,Região Turística Dos Negócios E Tradições,B,381970,Urbano,54165,3712361,5874020,1426500,11067047,2051712,13118759,370875,35372.0,Demais serviços,990890692,9170,134923,73452,10,69382
Anísio De Abreu,PI,0,9098,2568,4496,2773,477,1200,277,4288,0.594,0.534,0.768,0.512,-43.0349,-9.1749,434.1161,337.877,0,0,9818,Rural Adjacente,2811,2778,21146,37314,64049,4283,68332,9655,7077.0,"Administração, defesa, educação e saúde públicas e seguridade social",0,69,441,906,1,1246
Aparecida,SP,0,35007,10341,34084,22928,4111,260,1244,458,0.755,0.735,0.828,0.706,-45.2294,-22.8482,582.2604,121.076,Fé,A,36129,Urbano,1863,155047,758103,142824,1057836,57167,1115003,36248,30760.0,Demais serviços,91052277,1974,12667,4636,1,7045
Aparecida,PB,0,7676,2209,3635,2196,591,727,1671,4670,0.578,0.567,0.747,0.456,-38.0833,-6.7837,215.4375,295.705,Vale Dos Dinossauros,E,8337,Rural Adjacente,6958,3557,21268,36294,68078,4445,72523,8348,8687.0,"Administração, defesa, educação e saúde públicas e seguridade social",14746170,100,450,1299,1,848
Aparecida D'Oeste,SP,0,4450,1560,3623,2258,697,2578,29857,1288,0.721,0.697,0.804,0.67,-50.8856,-20.4508,423.2461,179.004,0,0,4234,Intermediário Adjacente,27409,17120,31276,18322,94127,4312,98439,4362,22567.0,Demais serviços,16106956,111,1871,591,1,668
Aparecida De Goiânia,GO,0,455657,136583,452266,307200,27386,113,576,1367,0.718,0.716,0.834,0.62,-49.2433,-16.8221,827.0,278.539,Região Turística Dos Negócios E Tradições,C,565957,Urbano,10267,2468260,6057955,1783782,10320265,1660720,11980985,532135,22515.0,Demais serviços,0,8947,138951,102673,6,117680
Aparecida Do Rio Doce,GO,0,2427,818,1940,1278,235,7000,20448,2107,0.693,0.7,0.814,0.583,-51.1515,-18.297,569.5319,602.133,0,0,2474,Rural Adjacente,34699,3356,15233,17228,70515,3388,73902,2514,29396.0,"Pecuária, inclusive apoio à pecuária",0,59,623,302,1,427
Aparecida Do Rio Negro,TO,0,4213,1254,3307,1925,350,22840,63217,3108,0.651,0.593,0.791,0.588,-47.9767,-9.9559,267.0708,1160.368,0,0,4741,Intermediário Adjacente,28055,2306,11869,28513,70743,2783,73526,4672,15738.0,"Administração, defesa, educação e saúde públicas e seguridade social",12715142,47,412,713,1,1032
Aparecida Do Taboado,MS,0,22320,7513,18228,11949,2177,25584,101258,1996,0.697,0.717,0.804,0.588,-51.0976,-20.085,392.2656,2750.15,Costa Leste,D,25431,Urbano,174676,266245,238651,140178,819749,73752,893501,24745,36108.0,Demais serviços,71995120,746,6989,5283,1,4102
Aperibé,RJ,0,10213,3459,8854,5824,1243,30,658,2151,0.692,0.67,0.785,0.631,-42.1049,-21.6194,65.9309,94.542,Águas Do Noroeste,D,11612,Intermediário Adjacente,7331,14050,57315,80675,159371,8649,168019,11160,15055.0,"Administração, defesa, educação e saúde públicas e seguridade social",0,269,2368,3396,3,1787
Apiacá,ES,0,7512,2458,5211,3235,918,2577,21279,2607,0.673,0.659,0.841,0.549,-41.5634,-21.1564,115.3891,193.984,0,0,7580,Rural Adjacente,20391,5020,29211,35200,89822,3460,93282,7928,11766.0,"Administração, defesa, educação e saúde públicas e seguridade social",0,149,2395,1310,3,1058
Apiacás,MT,0,8567,2527,4709,3167,277,90,1084,2559,0.675,0.666,0.809,0.57,-57.3954,-9.5655,221.8814,20493.065,0,0,9979,Rural Remoto,25385,6506,36272,54971,123134,9359,132494,9551,13872.0,"Administração, defesa, educação e saúde públicas e seguridade social",26285675,145,588,2636,1,1265
Apiaí,SP,0,25191,7582,18138,11415,1987,9352,147258,1602,0.71,0.662,0.835,0.647,-48.8487,-24.5133,925.8538,974.322,Cavernas Da Mata Atlântica,D,24526,Intermediário Adjacente,158668,104447,219566,88969,571650,42709,614359,25077,24499.0,Demais serviços,55210018,826,5753,3221,4,4736
Apicum-Açu,MA,0,14959,3401,9097,5493,634,566,1277,4901,0.568,0.529,0.718,0.483,-45.0767,-1.5306,10.5788,340.288,0,0,17063,Rural Remoto,15179,4029,24630,56253,100091,3629,103720,18169,5709.0,"Administração, defesa, educação e saúde públicas e seguridade social",38906474,77,153,673,1,2970
Apiúna,SC,0,9600,3028,3607,2495,355,665,8142,1692,0.708,0.735,0.827,0.584,-49.3916,-27.0418,132.0897,492.644,Vale Europeu,D,10636,Rural Adjacente,13918,156115,105858,48780,324671,62078,386749,10432,37073.0,Indústrias de transformação,36431515,412,3935,1126,1,757
Apodi,RN,0,34763,10026,17487,11841,1972,8711,88029,3321,0.639,0.611,0.747,0.571,-37.7978,-5.6638,76.2446,1602.477,Polo Serrano,C,35814,Intermediário Adjacente,66153,42618,134412,148414,391597,28037,419633,36257,11574.0,"Administração, defesa, educação e saúde públicas e seguridade social",0,367,3757,10060,2,3674
Aporá,BA,0,17731,5183,8471,5008,1072,2928,4652,5234,0.548,0.516,0.751,0.425,-38.08,-11.6554,190.1098,479.262,0,0,17673,Rural Adjacente,16105,6982,30612,60967,114665,3561,118226,19223,6150.0,"Administração, defesa, educação e saúde públicas e seguridade social",0,90,831,1687,2,2391
Aporé,GO,0,3803,1271,2490,1656,248,23700,105094,2109,0.693,0.692,0.823,0.584,-51.9281,-18.9589,556.3527,2900.053,0,0,4163,Rural Adjacente,110397,121407,36779,23598,292180,10354,302534,4110,73609.0,"Eletricidade e gás, água, esgoto, atividades de gestão de resíduos e descontaminação",0,45,898,373,1,586
Apuarema,BA,0,7459,2141,5112,3094,593,2686,5492,5185,0.552,0.555,0.735,0.413,-39.7421,-13.8532,272.5486,150.83,0,0,7360,Rural Adjacente,15710,3194,17833,27490,64227,3688,67914,7745,8769.0,"Administração, defesa, educação e saúde públicas e seguridade social",0,52,314,588,1,1425
Apucarana,PR,0,120919,38514,107880,71202,13638,41698,137729,593,0.748,0.741,0.845,0.668,-51.46,-23.5516,866.281,558.389,Vale Do Ivaí,C,133726,Urbano,111920,616639,1426996,516489,2672043,293739,2965782,131571,22541.0,Demais serviços,0,5258,49181,19174,7,23040
Apuiarés,CE,0,13925,3890,5766,3528,774,3345,2640,3738,0.618,0.536,0.741,0.593,-39.4304,-3.948,81.4219,545.158,0,0,14814,Rural Adjacente,4148,11594,24718,47794,88254,4666,92920,14644,6345.0,"Administração, defesa, educação e saúde públicas e seguridade social",32081247,93,802,2842,3,1464
Apuí,AM,0,18007,4614,10540,6569,564,1235,9753,3368,0.637,0.621,0.772,0.54,-59.8857,-7.1979,132.9811,54240.556,0,0,21583,Intermediário Remoto,60354,12501,35644,74532,183031,2244,185275,21031,8810.0,"Administração, defesa, educação e saúde públicas e seguridade social",32300675,166,327,2458,1,3407
Aquidabã,SE,0,20056,5994,11422,7072,1295,974,9807,4682,0.578,0.573,0.747,0.452,-37.0222,-10.2925,220.4098,359.543,0,0,21443,Intermediário Adjacente,49822,12235,66874,91673,220603,12814,233417,21452,10881.0,"Administração, defesa, educação e saúde públicas e seguridade social",33064256,160,1470,3093,1,3055
Aquidauana,MS,0,45614,12472,35080,21842,4257,485,4625,2227,0.688,0.69,0.84,0.562,-55.7906,-20.4747,152.4602,16970.711,Pantanal,C,47784,Urbano,153002,91375,316480,249920,810777,67935,878711,47323,18568.0,"Administração, defesa, educação e saúde públicas e seguridade social",107940983,788,7671,8943,5,8981
Aquiraz,CE,0,72628,19694,27233,17652,2603,4281,16579,3282,0.641,0.608,0.788,0.55,-38.3898,-3.9062,22.7593,480.997,Litoral Leste,B,79563,Urbano,82216,510291,809034,293325,1694866,449366,2144232,78438,27337.0,Demais serviços,218853602,1132,9362,9135,8,6978
Arabutã,SC,0,4193,1343,1303,801,235,1348,4554,943,0.733,0.744,0.863,0.614,-52.1486,-27.1574,480.1771,133.014,0,0,4266,Rural Adjacente,41496,12930,23255,23005,100686,6040,106727,4278,24948.0,"Pecuária, inclusive apoio à pecuária",17606493,181,1623,664,2,267
Aracaju,SE,1,571149,169830,566369,388256,51558,38,132,230,0.77,0.784,0.823,0.708,-37.0482,-10.9072,4.2883,182.163,Polo Costa Dos Coqueirais,A,648939,Urbano,2679,2624804,9244912,2652552,14524947,1973535,16498482,641523,25718.0,Demais serviços,1300130786,14534,173933,78612,14,126555
Aracati,CE,0,69159,19811,43879,28786,4825,15008,48868,3016,0.655,0.607,0.742,0.624,-37.7728,-4.5671,10.4008,1230.507,Litoral Leste,B,74084,Urbano,116909,256318,505133,226949,1105310,109267,1214577,73188,16595.0,Demais serviços,142346366,1090,7674,12262,17,10268
Aracatu,BA,0,13743,3657,3933,2490,473,2744,6116,4626,0.581,0.591,0.754,0.439,-41.4617,-14.4266,737.282,1489.804,0,0,13229,Rural Adjacente,13554,4699,25824,41199,85276,4074,89349,14023,6372.0,"Administração, defesa, educação e saúde públicas e seguridade social",29476471,113,1075,1070,1,970
Araci,BA,0,51651,13643,19588,12021,2010,12001,11881,5368,0.534,0.534,0.747,0.381,-38.961,-11.3357,267.9389,1495.554,Caminhos Do Sertão,D,54099,Rural Adjacente,60257,23249,121535,172927,377968,13926,391894,55637,7044.0,"Administração, defesa, educação e saúde públicas e seguridade social",99615019,450,3572,3334,1,5557
Aracitaba,MG,0,2058,701,1640,1025,298,209,894,2880,0.661,0.608,0.823,0.577,-43.3816,-21.3393,596.3781,106.608,0,0,2066,Rural Adjacente,2814,1164,5864,11703,21545,611,22156,2112,10491.0,"Administração, defesa, educação e saúde públicas e seguridade social",9314086,38,369,211,1,317
Aracoiaba,CE,0,25391,7042,13713,8338,1757,10663,9495,3807,0.615,0.55,0.759,0.556,-38.8094,-4.3704,122.8444,656.597,0,0,26437,Rural Adjacente,17854,12091,58084,94362,182391,8610,191000,26203,7289.0,"Administração, defesa, educação e saúde públicas e seguridade social",64913578,191,1677,3830,17,3618
Aracruz,ES,0,81832,23158,71122,47806,5650,6856,82186,508,0.752,0.717,0.838,0.707,-40.2762,-19.8233,68.063,1420.285,Verde E Das Águas,C,99305,Urbano,56308,2365067,1155391,465507,4042273,567096,4609369,96746,47644.0,Indústrias de transformação,368641022,2178,21019,11173,0,17666
Aragarças,GO,0,18305,5814,17403,11669,1685,704,2322,982,0.732,0.694,0.83,0.68,-52.2469,-15.8978,313.6835,664.53,Região Turística Vale Do Araguaia,C,19959,Urbano,8906,12568,108045,67179,196698,18379,215076,19736,10898.0,Demais serviços,33644300,307,7061,5657,1,4049
Aragoiânia,GO,0,8365,2699,5518,3602,599,213,553,2357,0.684,0.683,0.837,0.56,-49.4509,-16.9156,868.761,218.661,0,0,10116,Urbano,10152,12718,34272,34701,91843,7288,99130,9607,10319.0,"Administração, defesa, educação e saúde públicas e seguridade social",22916113,173,2039,1512,1,1317
Aragominas,TO,0,5882,1694,2222,1342,266,1125,1880,4314,0.593,0.611,0.739,0.461,-48.5234,-7.1643,302.7352,1173.035,0,0,5786,Rural Adjacente,20404,1058,6419,34493,62374,1496,63870,5887,10849.0,"Administração, defesa, educação e saúde públicas e seguridade social",0,27,180,586,1,614
Araguacema,TO,0,6317,1844,2868,1683,333,23576,73850,3315,0.639,0.587,0.805,0.553,-49.5618,-8.8018,156.0,2778.452,Lagos E Praias Do Cantão,D,7016,Rural Remoto,33767,2621,15812,38710,90909,3699,94608,6934,13644.0,"Administração, defesa, educação e saúde públicas e seguridade social",0,48,271,643,1,852
Araguaiana,MT,0,3197,1087,1228,786,189,2187,6259,2262,0.687,0.671,0.817,0.591,-51.8336,-15.7312,292.8545,6422.966,0,0,3119,Rural Adjacente,31624,1825,13914,21276,68640,4410,73050,3059,23880.0,"Pecuária, inclusive apoio à pecuária",14396981,40,214,330,1,253
Araguainha,MT,0,1096,387,944,578,148,377,1392,1871,0.701,0.65,0.844,0.627,-53.0356,-16.8575,453.4124,688.326,Região Turística Domo De Araguainha,D,956,Rural Remoto,3977,744,3643,9254,17618,866,18484,953,19395.0,"Administração, defesa, educação e saúde públicas e seguridade social",0,26,59,43,1,218
Araguanã,TO,0,5030,1397,3373,1971,308,23,37,4080,0.604,0.617,0.756,0.473,-48.6437,-6.5822,139.4512,836.03,Vale Dos Grandes Rios,D,5663,Rural Adjacente,20059,2034,9665,33165,64924,1939,66863,5581,11981.0,"Administração, defesa, educação e saúde públicas e seguridade social",0,35,263,524,1,1094
Araguanã,MA,0,13973,2975,5363,3031,426,1589,2452,5373,0.533,0.483,0.706,0.444,-45.6688,-2.9491,19.124,805.193,0,0,15297,Rural Adjacente,12422,2744,17035,42391,74592,2696,77289,15182,5091.0,"Administração, defesa, educação e saúde públicas e seguridade social",30554045,38,240,969,1,1906
Araguapaz,GO,0,7510,2578,5167,3362,613,1333,4741,2587,0.674,0.696,0.814,0.54,-50.6347,-15.0885,295.3289,2193.7,0,0,7756,Rural Adjacente,40756,4542,32943,29923,108164,6493,114657,7841,14623.0,"Pecuária, inclusive apoio à pecuária",19304600,128,1302,1367,1,1192
Araguari,MG,0,109801,35535,101933,67958,13237,68334,480589,200,0.773,0.74,0.871,0.716,-48.1916,-18.6483,925.1206,2729.508,Alta Mogiana,C,116691,Urbano,348862,1396863,1391602,484609,3621936,301892,3923828,116871,33574.0,Demais serviços,0,3108,39645,26020,5,20738
Araguatins,TO,0,31329,8166,20031,11739,1829,1090,3926,3478,0.631,0.604,0.793,0.525,-48.1235,-5.6506,116.2614,2625.286,Bico Do Papagaio,D,35346,Intermediário Adjacente,31989,13508,121458,189076,356032,21227,377258,34810,10838.0,"Administração, defesa, educação e saúde públicas e seguridade social",57118319,252,2129,7540,2,6463
Araguaçu,TO,0,8786,2938,5832,3682,759,9793,26289,2565,0.675,0.642,0.796,0.602,-49.8286,-12.9256,315.1678,5167.652,0,0,8567,Rural Remoto,78932,4475,38473,51850,173731,7582,181312,8734,20759.0,"Pecuária, inclusive apoio à pecuária",20537118,139,1188,1922,1,1391
Araguaína,TO,0,150484,43903,142289,94139,10245,6887,16099,512,0.752,0.727,0.821,0.712,-48.2087,-7.1913,235.277,4000.416,Vale Dos Grandes Rios,B,177517,Urbano,61742,426902,1947775,942343,3378762,426461,3805223,173112,21981.0,Demais serviços,338060665,3412,32957,55965,4,37905
Araioses,MA,0,42505,10275,12310,7272,1308,6421,10022,5454,0.521,0.497,0.709,0.402,-41.8991,-2.8893,0.1042,1786.345,Polo Delta Das Américas,D,46103,Rural Adjacente,41397,9847,69783,128254,249282,9837,259119,45680,5672.0,"Administração, defesa, educação e saúde públicas e seguridade social",0,158,134,1503,1,3730
Aral Moreira,MS,0,10251,2605,5340,3143,393,193987,487259,3435,0.633,0.628,0.798,0.507,-55.6308,-22.9479,608.8308,1655.66,0,0,11963,Rural Adjacente,255838,21112,168836,68305,514090,67946,582036,11586,50236.0,"Agricultura, inclusive apoio à agricultura e a pós colheita",36837180,101,1265,486,2,1804
Aramari,BA,0,10036,2686,5105,3343,527,452,2177,4460,0.588,0.568,0.761,0.47,-38.5031,-12.0882,216.236,368.948,Caminhos Do Sertão,E,11332,Rural Adjacente,17957,9969,18262,35416,81604,3276,84880,11385,7455.0,"Administração, defesa, educação e saúde públicas e seguridade social",21840945,48,573,599,1,1235
Arambaré,RS,0,3693,1336,2897,1721,596,21979,112281,2175,0.691,0.694,0.833,0.57,-51.5013,-30.9093,6.7585,518.193,Costa Doce,C,3600,Rural Adjacente,72377,5821,29379,20493,128070,3617,131687,3755,35070.0,"Agricultura, inclusive apoio à agricultura e a pós colheita",14661149,101,1229,470,2,580
Arame,MA,0,31702,6615,12430,7115,1118,12369,10104,5498,0.512,0.525,0.701,0.365,-46.0136,-4.8861,128.6437,2976.039,0,0,32637,Rural Remoto,48302,8817,63630,91854,212602,9707,222309,32083,6929.0,"Administração, defesa, educação e saúde públicas e seguridade social",51200062,186,336,4550,1,4197
Aramina,SP,0,5152,1653,4811,3189,695,15666,78827,767,0.74,0.723,0.856,0.656,-47.786,-20.0899,625.034,202.829,Lagos Do Rio Grande,D,5585,Intermediário Adjacente,25800,5040,62206,23304,116350,9283,125633,5519,22764.0,Demais serviços,0,190,2095,249,1,927
Arandu,SP,0,6123,1906,4596,2976,582,17270,109513,2311,0.685,0.675,0.806,0.592,-49.051,-23.1334,633.0611,285.908,0,0,6348,Intermediário Adjacente,59464,7937,33302,27460,128163,3110,131273,6360,20640.0,"Agricultura, inclusive apoio à agricultura e a pós colheita",22354749,123,1582,519,1,1038
Arantina,MG,0,2823,932,2633,1659,389,42,178,2019,0.697,0.633,0.834,0.641,-44.247,-21.9161,1073.7728,89.42,Serras De Ibitipoca,D,2804,Rural Adjacente,21867,3829,12042,14411,52149,1269,53418,2877,18567.0,"Agricultura, inclusive apoio à agricultura e a pós colheita",11352761,58,742,328,1,585
Arapeí,SP,0,2493,800,1836,1140,269,116,534,2456,0.68,0.634,0.812,0.612,-44.4481,-22.6748,518.5469,156.903,Vale Histórico,E,2478,Rural Adjacente,1886,1328,8103,13307,24623,1265,25889,2516,10290.0,"Administração, defesa, educação e saúde públicas e seguridade social",11756457,59,701,218,1,427
Arapiraca,AL,0,214006,58426,184819,118061,16920,9437,45114,3143,0.649,0.638,0.78,0.549,-36.6573,-9.7559,269.1145,345.655,Agreste,B,230417,Urbano,370477,308357,2126985,805750,3611568,401063,4012632,232671,17246.0,Demais serviços,0,3992,32730,56910,3,49838
Arapoema,TO,0,6742,1961,5417,3274,498,1409,4086,2457,0.68,0.645,0.81,0.601,-49.0756,-7.6526,209.4461,1552.217,0,0,6670,Intermediário Adjacente,33343,3402,26739,38035,101519,4881,106400,6777,15700.0,"Administração, defesa, educação e saúde públicas e seguridade social",13537891,70,476,1656,1,1645
Araponga,MG,0,8152,2373,3022,1941,325,6142,57703,5357,0.536,0.597,0.76,0.339,-42.5263,-20.6657,905.2062,303.793,Serras De Minas,D,8425,Rural Adjacente,27378,3670,18895,30740,80683,2345,83027,8523,9742.0,"Administração, defesa, educação e saúde públicas e seguridade social",16131509,97,1116,1843,2,756
Arapongas,PR,0,104150,33178,97967,65768,11620,42303,127191,596,0.748,0.751,0.834,0.669,-51.4383,-23.4135,801.9528,382.215,Norte Do Paraná,C,121198,Urbano,188460,1321168,1600358,469966,3579951,450807,4030758,116960,34463.0,Demais serviços,185286189,4432,45514,24268,4,20579
Araporã,MG,0,6144,1796,5848,3862,554,11777,76357,1678,0.708,0.676,0.813,0.646,-49.1901,-18.4419,447.8663,295.837,Alta Mogiana,E,6804,Urbano,31077,757777,182854,46335,1018043,63784,1081827,6717,161058.0,"Eletricidade e gás, água, esgoto, atividades de gestão de resíduos e descontaminação",47697279,185,1125,809,1,1432
Arapoti,PR,0,25855,7970,21650,13941,1964,63258,232681,1228,0.723,0.715,0.823,0.643,-49.8248,-24.1466,875.6984,1360.494,Campos Gerais,C,27925,Urbano,212766,219768,332910,117831,883274,159004,1042279,27728,37589.0,Demais serviços,62713054,768,8036,2649,2,5745
Araputanga,MT,0,15342,4839,12121,7997,1068,2515,6977,1170,0.725,0.704,0.826,0.655,-58.3484,-15.4681,213.4748,1610.076,0,0,16690,Urbano,29352,123120,139851,87528,379850,34558,414409,16109,25725.0,Demais serviços,34216331,357,3142,5508,1,3056
Arapuá,MG,0,2775,986,2074,1319,339,597,8479,1191,0.724,0.718,0.871,0.608,-46.1546,-19.0339,1020.0731,173.894,Caminhos Do Cerrado,E,2833,Rural Adjacente,16297,27572,41576,14828,100273,16673,116946,2879,40620.0,Demais serviços,11665105,42,714,455,1,416
Arapuã,PR,0,3561,1157,1334,779,258,26916,62478,2536,0.676,0.638,0.828,0.584,-51.7913,-24.3087,706.6134,217.371,Vale Do Ivaí,E,3128,Rural Adjacente,46623,3725,24380,17571,92300,4748,97048,3384,28679.0,"Agricultura, inclusive apoio à agricultura e a pós colheita",14389866,60,948,674,1,297
Araquari,SC,0,24810,7240,15727,10350,893,2860,26044,1813,0.703,0.696,0.83,0.602,-48.6927,-26.376,16.9991,384.172,Caminho Dos Príncipes,D,36710,Urbano,53202,1553197,760284,153350,2520033,683619,3203652,33867,94595.0,Indústrias de transformação,81016868,1512,9087,2995,2,4484
Arara,PB,0,12653,3918,8899,4938,1746,2955,2575,5240,0.548,0.569,0.712,0.407,-35.7595,-6.8262,448.051,99.111,0,0,13438,Rural Adjacente,4278,2195,22782,56849,86104,4110,90214,13448,6708.0,"Administração, defesa, educação e saúde públicas e seguridade social",0,112,799,802,1,2215
Araranguá,SC,0,61310,19827,37937,25612,3933,7970,69202,370,0.76,0.745,0.853,0.691,-49.481,-28.9358,14.8555,303.16,Caminho Dos Canyons,C,67578,Urbano,100047,247824,849649,250131,1447651,125453,1573104,66442,23676.0,Demais serviços,126471699,2590,30603,14539,5,8392
Araraquara,SP,0,208662,68806,200956,135953,28189,60955,414763,15,0.815,0.788,0.877,0.782,-48.1744,-21.7904,673.0726,1003.625,Centro Paulista,B,233744,Urbano,108953,1578522,5206368,903405,7797249,1135679,8932928,228664,39066.0,Demais serviços,639269199,8805,105398,43072,3,36814
Araras,SP,0,118843,36348,111624,75712,13934,38387,224510,127,0.781,0.763,0.859,0.728,-47.3858,-22.3571,635.4982,644.831,Trilhos E Trilhas Da Baixamogiana,C,132934,Urbano,102136,1396341,2434354,491613,4424444,573042,4997486,130102,38412.0,Demais serviços,0,4662,55160,29368,2,21978
Ararendá,CE,0,10491,3077,4887,2831,722,2321,2177,4405,0.59,0.522,0.763,0.516,-40.8311,-4.7519,380.9835,344.131,0,0,10901,Rural Adjacente,7043,2121,16500,37258,62922,2267,65189,10800,6036.0,"Administração, defesa, educação e saúde públicas e seguridade social",25709304,52,501,2425,0,1334
Arari,MA,0,28488,6948,17938,11132,1797,3121,10845,3582,0.626,0.587,0.764,0.546,-44.7788,-3.4592,7.7995,1100.275,Polo Lagos E Campos Floridos,D,29764,Intermediário Adjacente,52899,10810,71728,88028,223465,11326,234791,29297,8014.0,"Administração, defesa, educação e saúde públicas e seguridade social",63097322,213,994,5060,2,5009
Araricá,RS,0,4864,1689,3996,2639,413,290,3206,2468,0.679,0.696,0.824,0.547,-50.9257,-29.6172,32.2123,35.165,Vale Do Rio Dos Sinos,D,5622,Urbano,2071,47757,52683,28428,130939,21113,152052,5349,28426.0,Indústrias de transformação,0,230,2308,801,1,944
Araripe,CE,0,20685,5552,12713,7331,1491,7941,24578,4973,0.564,0.515,0.759,0.459,-40.1374,-7.2062,630.6356,1099.933,0,0,21550,Rural Adjacente,18075,5193,41675,78498,143441,5108,148550,21345,6959.0,"Administração, defesa, educação e saúde públicas e seguridade social",48710113,225,1302,3977,1,3891
Araripina,PE,0,77302,20644,44831,27171,4248,31015,14445,4102,0.602,0.595,0.785,0.467,-40.5025,-7.5781,639.7811,2037.387,Chapada Do Araripe,D,83964,Intermediário Adjacente,17189,100407,303900,304397,725892,60782,786673,83287,9445.0,"Administração, defesa, educação e saúde públicas e seguridade social",133008120,1020,6940,20919,6,13412
Araruama,RJ,0,112008,35874,105368,67071,14612,5009,54934,1380,0.718,0.714,0.839,0.617,-42.3411,-22.8774,12.1036,638.15,Costa Do Sol,C,130439,Urbano,39534,245682,1155250,868306,2308773,158553,2467326,124940,19748.0,Demais serviços,0,2160,39047,14738,4,23685
Araruna,PR,0,13419,4358,10473,6896,1302,45924,203006,1807,0.704,0.685,0.785,0.648,-52.4996,-23.9282,607.0459,493.19,Ecoaventuras Histórias E Sabores,D,13939,Rural Adjacente,109044,107631,121669,58186,396530,51923,448453,14056,31905.0,Demais serviços,35151806,346,4403,2613,2,2275
Araruna,PB,0,18879,5233,9280,5315,1276,4000,12547,4912,0.567,0.549,0.758,0.439,-35.736,-6.5314,547.2111,241.302,Seridó E Curimataú,D,20215,Rural Adjacente,10350,5936,42079,90217,148582,6310,154892,20237,7654.0,"Administração, defesa, educação e saúde públicas e seguridade social",36976146,115,1157,2364,1,2689
Arataca,BA,0,10392,3052,5579,3129,627,10897,12660,5067,0.559,0.557,0.758,0.413,-39.4133,-15.2609,158.9178,435.962,0,0,11079,Rural Adjacente,35955,5867,16690,37657,96169,1773,97942,11697,8373.0,"Administração, defesa, educação e saúde públicas e seguridade social",0,54,376,480,2,1823
Aratiba,RS,0,6565,2167,3290,2167,581,5044,22472,211,0.772,0.801,0.856,0.67,-52.3038,-27.3944,413.7973,342.279,Termas E Lagos,D,6283,Rural Adjacente,60021,785942,56919,41595,944478,10393,954871,6621,144219.0,"Eletricidade e gás, água, esgoto, atividades de gestão de resíduos e descontaminação",41170656,293,2774,901,4,542
Aratuba,CE,0,11529,2924,3743,2262,424,5588,27344,3665,0.622,0.53,0.775,0.587,-39.0476,-4.4169,820.2471,114.785,0,0,11346,Rural Adjacente,25357,3004,19949,42397,90707,2903,93610,11300,8284.0,"Administração, defesa, educação e saúde públicas e seguridade social",26376618,103,512,2201,2,1057
Aratuípe,BA,0,8599,2430,5490,3370,583,943,9250,4758,0.575,0.57,0.753,0.443,-39.0029,-13.0806,5.2204,174.012,Baía De Todos Os Santos,E,8813,Rural Adjacente,20204,3137,14884,26920,65145,2204,67349,9150,7361.0,"Administração, defesa, educação e saúde públicas e seguridade social",16557898,79,432,711,1,1537
Araucária,PR,0,119123,35508,107927,73194,7350,29566,168602,781,0.74,0.743,0.852,0.639,-49.4019,-25.5916,903.2763,469.24,Rotas Do Pinhão,B,141410,Urbano,142543,8948487,4827455,800602,14719087,2259713,16978801,135459,125343.0,Indústrias de transformação,581165348,3405,54618,12514,4,27383
Arauá,SE,0,10878,2970,3388,2153,313,4926,15579,4259,0.595,0.55,0.783,0.49,-37.6123,-11.2645,112.3246,198.967,Polo Sertão Das Águas,D,10168,Rural Adjacente,24898,6510,23321,51592,106321,5108,111429,10467,10646.0,"Administração, defesa, educação e saúde públicas e seguridade social",24647093,69,834,1129,1,922
Araxá,MG,0,93672,29333,88054,60012,10350,24677,116971,213,0.772,0.756,0.858,0.709,-46.94,-19.5913,989.5981,1164.062,Canastra,B,105083,Urbano,96591,1520791,2016078,448272,4081732,679618,4761350,103287,46098.0,Demais serviços,286807625,3043,39605,14529,3,17692
Araçagi,PB,0,17224,5017,6774,4090,993,7319,115525,5222,0.549,0.54,0.745,0.412,-35.3833,-6.8517,50.0,231.155,0,0,17079,Rural Adjacente,25804,5225,31300,74171,136500,5232,141732,17061,8307.0,"Administração, defesa, educação e saúde públicas e seguridade social",29530101,93,1102,3051,1,1691
Araçariguama,SP,0,17080,4940,11232,7458,728,183,752,1784,0.704,0.717,0.814,0.597,-47.0715,-23.43,710.6765,145.204,Roteiro Dos Bandeirantes,D,21854,Intermediário Adjacente,1213,626414,1010191,104139,1741957,379540,2121497,20581,103080.0,Demais serviços,83166049,640,6008,1881,1,3046
Araçatuba,SP,0,181579,60701,177356,119383,24962,38092,154331,76,0.788,0.782,0.841,0.744,-50.4392,-21.2055,403.1018,1167.126,Tietê Vivo,B,195874,Urbano,97393,1406150,4203708,653261,6360511,578041,6938553,193828,35797.0,Demais serviços,424985928,7528,81636,60964,4,33011
Araçaí,MG,0,2243,719,1783,1136,243,44,423,2060,0.695,0.659,0.805,0.632,-44.2469,-19.2004,715.8005,187.538,Guimarães Rosa,E,2341,Rural Adjacente,5048,11545,11237,13097,40927,4370,45297,2361,19185.0,"Administração, defesa, educação e saúde públicas e seguridade social",10184154,42,371,130,1,404
Araçoiaba,PE,0,18156,4851,16457,10397,1318,1316,5866,4349,0.592,0.544,0.765,0.498,-35.094,-7.7856,161.8506,96.381,0,0,20312,Urbano,6207,3780,36918,75515,122419,6158,128577,20046,6414.0,"Administração, defesa, educação e saúde públicas e seguridade social",35091631,91,1252,1369,1,4742
Araçoiaba Da Serra,SP,0,27299,8572,18665,12200,2426,2606,12958,175,0.776,0.751,0.86,0.723,-47.5872,-23.5073,625.4577,255.327,História & Aventuras,D,33499,Urbano,22563,156649,290010,116742,585963,65195,651158,31915,20403.0,Demais serviços,80068968,999,12086,4792,1,4039
Araçu,GO,0,3802,1302,3349,2132,543,2147,7209,2114,0.693,0.686,0.838,0.578,-49.6817,-16.3543,721.9351,149.371,0,0,3560,Rural Adjacente,15220,4823,13131,16614,49788,2101,51889,3753,13826.0,"Administração, defesa, educação e saúde públicas e seguridade social",12822380,62,966,622,1,674
Araçuaí,MG,0,36013,9962,23201,14711,2654,2928,13766,2838,0.663,0.633,0.821,0.56,-42.0642,-16.8518,317.4352,2236.279,0,0,36705,Intermediário Adjacente,13830,33761,170666,128189,346445,19123,365568,37317,9796.0,Demais serviços,0,589,3407,7502,2,5836
Araçás,BA,0,11561,3161,5737,3752,365,807,2428,4860,0.57,0.54,0.744,0.462,-38.1983,-12.2152,70.6223,474.66,0,0,12143,Rural Adjacente,11005,28035,32121,48201,119361,6125,125487,12495,10043.0,"Administração, defesa, educação e saúde públicas e seguridade social",38273598,80,972,797,1,1620
Araújos,MG,0,7883,2459,6751,4441,714,369,2641,1971,0.698,0.694,0.855,0.574,-45.1667,-19.9468,799.133,245.522,0,0,9142,Intermediário Adjacente,109935,23019,83194,34331,250479,15609,266088,8885,29948.0,"Agricultura, inclusive apoio à agricultura e a pós colheita",17428542,255,2315,1179,1,1596
Arceburgo,MG,0,9509,2874,8131,5335,1099,2559,15773,2374,0.683,0.687,0.81,0.573,-46.9444,-21.3602,723.5007,162.875,Montanhas Cafeeiras De Minas,D,10657,Intermediário Adjacente,23666,56865,99366,42261,222158,40460,262618,10478,25064.0,Demais serviços,22573354,235,2992,1138,1,1697
Arco-Íris,SP,0,1925,582,1097,709,211,6865,31468,1248,0.722,0.671,0.809,0.694,-50.4649,-21.7739,440.9937,264.904,Circuito Do Interior,E,1811,Rural Adjacente,27370,3050,8785,11676,50880,1107,51987,1873,27756.0,"Agricultura, inclusive apoio à agricultura e a pós colheita",12352376,53,480,206,1,177
Arcos,MG,0,36597,11580,33752,23273,3803,5409,22449,569,0.749,0.717,0.874,0.671,-45.5436,-20.2826,724.5796,509.873,Grutas E Mar De Minas,D,39793,Urbano,38692,325305,426505,158138,948640,148794,1097434,39537,27757.0,Demais serviços,94212129,1661,14355,7274,4,6676
Arcoverde,PE,0,68793,20183,62015,38100,7138,1760,1143,2739,0.667,0.654,0.799,0.567,-37.0565,-8.4239,671.5833,323.37,Fé E Arte,C,73844,Urbano,10417,66862,517443,250342,845064,105560,950624,73154,12995.0,Demais serviços,128454436,1127,12641,9893,1,16777
Areado,MG,0,13731,4500,11478,7426,1620,8554,63519,1128,0.727,0.7,0.847,0.649,-46.1466,-21.3584,823.6303,283.124,Montanhas Cafeeiras De Minas,D,14955,Urbano,39998,14283,96576,54045,204902,12189,217091,14851,14618.0,Demais serviços,24101613,519,4911,1210,1,2432
Areal,RJ,0,11423,3505,9896,6494,1260,12,257,2333,0.684,0.686,0.823,0.566,-43.1011,-22.2369,450.6948,110.724,Caminhos Coloniais,D,12471,Urbano,2449,45062,118469,99658,265638,50639,316277,12058,26230.0,"Administração, defesa, educação e saúde públicas e seguridade social",47278815,411,3258,1656,1,2142
Arealva,SP,0,7841,2663,6154,3819,1131,11797,114333,693,0.744,0.718,0.84,0.683,-48.9204,-22.0248,447.9803,504.973,Caminhos Do Tietê,D,8505,Rural Adjacente,50743,12376,68142,32261,163523,7186,170709,8402,20318.0,Demais serviços,0,612,2321,837,2,1204
Areia,PB,0,23829,6355,14513,8880,1915,4363,29991,4289,0.594,0.593,0.756,0.467,-35.7034,-6.9655,608.9055,266.596,Brejo,D,22978,Intermediário Adjacente,23120,15306,61523,93526,193475,14275,207750,22940,9056.0,"Administração, defesa, educação e saúde públicas e seguridade social",0,231,2211,2693,4,3718
Areia Branca,SE,0,16857,4615,7931,4961,668,1367,2872,4662,0.579,0.579,0.773,0.434,-37.3134,-10.7582,176.6265,148.134,Polo Das Serras Sergipanas,E,18396,Rural Adjacente,34248,11923,42789,81967,170926,8411,179337,18329,9784.0,"Administração, defesa, educação e saúde públicas e seguridade social",34766082,96,1635,1945,1,2302
Areia Branca,RN,0,25315,7262,20275,13178,2209,2570,710,2386,0.682,0.647,0.79,0.621,-37.1313,-4.9529,12.0045,335.219,Polo Costa Branca,C,27162,Urbano,10253,132974,171148,131072,445447,48445,493892,27176,18174.0,Demais serviços,0,348,2788,4837,2,4888
Areia De Baraúnas,PB,0,1927,488,1017,628,101,181,161,5019,0.562,0.566,0.68,0.462,-36.9435,-7.1237,365.3387,112.089,0,0,2140,Rural Adjacente,658,526,2733,12855,16771,343,17114,2137,8008.0,"Administração, defesa, educação e saúde públicas e seguridade social",10971906,8,86,169,1,288
Areial,PB,0,6470,1964,4588,2725,763,1525,2029,3968,0.608,0.573,0.779,0.503,-35.9228,-7.05,692.1391,35.641,0,0,6935,Rural Adjacente,1622,1464,12003,33955,49044,2049,51093,6938,7364.0,"Administração, defesa, educação e saúde públicas e seguridade social",16439356,64,601,437,1,1100
Areias,SP,0,3696,1083,2431,1528,286,153,1915,1998,0.697,0.627,0.803,0.672,-44.6994,-22.5822,534.092,305.227,Vale Histórico,D,3876,Rural Adjacente,6323,1035,10913,17932,36203,1550,37753,3869,9758.0,"Administração, defesa, educação e saúde públicas e seguridade social",15038054,47,980,298,1,617
Areiópolis,SP,0,10579,3035,9390,6204,842,7145,46998,2063,0.695,0.686,0.823,0.594,-48.6656,-22.6739,649.2347,85.907,Pólo Turístico Cuesta,E,11099,Intermediário Adjacente,21766,10976,52070,40419,125232,4577,129809,11078,11718.0,Demais serviços,26698739,190,3321,660,1,2344
Arenápolis,MT,0,10316,3296,9710,6296,1044,4038,13825,1806,0.704,0.677,0.793,0.649,-56.8445,-14.4555,234.9874,415.585,0,0,9714,Urbano,17669,13096,70237,50581,151583,13661,165244,9576,17256.0,"Administração, defesa, educação e saúde públicas e seguridade social",18763194,308,2023,2946,1,2370
Arenópolis,GO,0,3277,1202,1858,1193,293,12890,41813,2277,0.687,0.674,0.826,0.582,-51.56,-16.3875,420.9036,1074.595,0,0,2689,Rural Adjacente,49089,6805,17463,14378,87735,4906,92641,3011,30767.0,"Pecuária, inclusive apoio à pecuária",14347274,59,466,349,1,372
Argirita,MG,0,2901,938,2192,1336,420,80,431,3253,0.643,0.645,0.817,0.505,-42.8364,-21.6076,273.2717,159.378,Serras E Cachoeiras,E,2751,Rural Adjacente,3964,1760,9289,14576,29589,997,30586,2874,10642.0,"Administração, defesa, educação e saúde públicas e seguridade social",11322946,66,510,184,1,436
Aricanduva,MG,0,4770,1302,1684,1051,175,1415,5138,4591,0.582,0.553,0.787,0.454,-42.5592,-17.8678,833.4689,243.329,0,0,5191,Rural Adjacente,6006,1095,8348,21652,37102,878,37980,5156,7366.0,"Administração, defesa, educação e saúde públicas e seguridade social",12846362,71,393,755,1,458
Arinos,MG,0,17674,5227,10806,6623,1153,9935,34678,3003,0.656,0.607,0.815,0.57,-46.1078,-15.9218,507.0503,5279.419,Urucuia Grande Sertão,D,17888,Rural Adjacente,46533,8545,68396,70992,194466,9733,204199,18232,11200.0,"Administração, defesa, educação e saúde públicas e seguridade social",32610968,219,2587,1996,3,3030
Aripuanã,MT,0,18656,5325,10874,7029,527,7013,23748,2562,0.675,0.682,0.816,0.553,-59.4486,-10.1725,237.3114,25107.968,Região Turística Vale Do Juruena,C,21987,Intermediário Remoto,64863,317408,126984,117844,627099,61090,688189,21011,32754.0,"Eletricidade e gás, água, esgoto, atividades de gestão de resíduos e descontaminação",53750066,368,1471,6471,2,3318
Ariquemes,RO,0,90353,27236,69068,46000,4592,7115,33365,1847,0.702,0.716,0.806,0.6,-63.0333,-9.9085,138.689,4426.571,Vale Do Jamari,C,106168,Urbano,145069,353163,879967,589089,1967287,216096,2183383,105896,20618.0,Demais serviços,201979608,2221,17513,42664,2,18476
Ariranha,SP,0,8547,2692,8065,5342,1053,9139,59420,949,0.733,0.73,0.813,0.663,-48.7883,-21.1861,590.6234,132.624,0,0,9573,Intermediário Adjacente,27510,224190,280393,41636,573729,80300,654030,9365,69838.0,Indústrias de transformação,33641880,223,3231,769,1,1670
Ariranha Do Ivaí,PR,0,2453,804,899,555,127,26193,66487,2664,0.67,0.637,0.794,0.594,-51.5879,-24.3833,751.5249,239.562,Vale Do Ivaí,E,2151,Rural Adjacente,47194,3260,13154,13384,76992,2117,79110,2330,33953.0,"Agricultura, inclusive apoio à agricultura e a pós colheita",12346128,33,635,355,1,217
